Nom Ville,MAJ,Code Postal,Code INSEE,Latitude,Longitude,Eloignement,Departement
Aast,AAST,64460,64001,43.283333,-0.083333,1.73,7
Abainville,ABAINVILLE,55130,55001,48.533333,5.5,1.94,53
Abancourt,ABANCOURT,59265,59001,50.233333,3.216667,1.19,64
Abancourt,ABANCOURT,60220,60001,49.7,1.766667,1.98,77
Abaucourt,ABAUCOURT,54610,54001,48.9,6.25,0.47,52
Abbans-Dessous,ABBANS DESSOUS,25320,25001,47.133333,5.883333,1.8,32
Abbans-Dessus,ABBANS DESSUS,25440,25002,47.116667,5.883333,1.8,32
Abbaretz,ABBARETZ,44170,44001,47.55,-1.533333,1.46,71
Abbecourt,ABBECOURT,60430,60002,49.366667,2.15,0.77,77
Abbécourt,ABBECOURT,02300,02001,49.6,3.183333,1.5,76
Abbenans,ABBENANS,25340,25003,47.5,6.45,1.82,32
Abbeville,ABBEVILLE,80100,80001,50.1,1.833333,1.23,78
Abbéville-la-Rivière,ABBEVILLE LA RIVIERE,91150,91001,48.35,2.166667,2.08,37
Abbéville-lès-Conflans,ABBEVILLE LES CONFLANS,54800,54002,49.2,5.85,1.54,52
Abbévillers,ABBEVILLERS,25310,25004,47.433333,6.916667,2.06,32
Abbeville-Saint-Lucien,ABBEVILLE SAINT LUCIEN,60480,60003,49.516667,2.166667,0.97,77
Abeilhan,ABEILHAN,34290,34001,43.45,3.3,0.99,46
Abelcourt,ABELCOURT,70300,70001,47.783333,6.3,1.14,34
Abère,ABERE,64160,64002,43.383333,-0.166667,1.49,7
Abergement-la-Ronce,ABERGEMENT LA RONCE,39500,39001,47.066667,5.383333,1.78,33
Abergement-le-Grand,ABERGEMENT LE GRAND,39600,39002,46.916667,5.683333,1.17,33
Abergement-le-Petit,ABERGEMENT LE PETIT,39800,39003,46.9,5.7,0.8,33
Abergement-lès-Thésy,ABERGEMENT LES THESY,39110,39004,46.916667,5.933333,1.65,33
Abergement-Saint-Jean,ABERGEMENT SAINT JEAN,39120,39005,46.883333,5.366667,1.89,33
Abidos,ABIDOS,64150,64003,43.4,-0.616667,0.67,7
Abitain,ABITAIN,64390,64004,43.416667,-0.983333,1.47,7
Ablain-Saint-Nazaire,ABLAIN SAINT NAZAIRE,62153,62001,50.383333,2.716667,1.1,65
Ablainzevelle,ABLAINZEVELLE,62116,62002,50.15,2.733333,1.81,65
Ablancourt,ABLANCOURT,51240,51001,48.816667,4.533333,0.98,28
Ableiges,ABLEIGES,95450,95002,49.083333,1.983333,1.53,42
Ablis,ABLIS,78660,78003,48.516667,1.841667,-1,43
Ablon,ABLON,14600,14001,49.4,0.3,2.19,66
Ablon-sur-Seine,ABLON SUR SEINE,94480,94001,48.716667,2.416667,2,41
Aboën,ABOEN,42380,42001,45.416667,4.133333,1.4,93
Aboncourt,ABONCOURT,54115,54003,48.358333,5.966667,-1,52
Aboncourt,ABONCOURT,57920,57001,49.266667,6.35,1.26,54
Aboncourt-sur-Seille,ABONCOURT SUR SEILLE,57590,57002,48.816667,6.35,1.49,54
Abondance,ABONDANCE,74360,74001,46.283333,6.733333,1.93,96
Abondant,ABONDANT,28570,28001,48.783333,1.433333,1.97,21
Abos,ABOS,64360,64005,43.35,-0.566667,0.72,7
Abreschviller,ABRESCHVILLER,57560,57003,48.633333,7.1,2.41,54
Abrest,ABREST,03200,03001,46.1,3.433333,1.76,8
Abriès,ABRIES,05460,05001,44.783333,6.933333,2.69,84
Abscon,ABSCON,59215,59002,50.333333,3.3,0.41,64
Abzac,ABZAC,16500,16001,46.1,0.7,2.48,79
Abzac,ABZAC,33230,33001,45.016667,-0.133333,1.03,4
Accolans,ACCOLANS,25250,25005,47.5,6.533333,1.7,32
Accolay,ACCOLAY,89460,89001,47.666667,3.716667,1.66,15
Accons,ACCONS,07160,07001,44.9,4.383333,0.71,90
Accous,ACCOUS,64490,64006,42.983333,-0.6,2.88,7
Achain,ACHAIN,57340,57004,48.916667,6.583333,0.77,54
Achen,ACHEN,57410,57006,49.05,7.183333,1.78,54
Achenheim,ACHENHEIM,67204,67001,48.583333,7.633333,0.5,1
Achères,ACHERES,18250,18001,47.283333,2.466667,1.62,20
Achères,ACHERES,78260,78005,48.966667,2.066667,1.45,43
Achères-la-Forêt,ACHERES LA FORET,77760,77001,48.35,2.566667,1.68,40
Achery,ACHERY,02800,02002,49.683333,3.383333,0.63,76
Acheux-en-Amiénois,ACHEUX EN AMIENOIS,80560,80003,50.066667,2.533333,0.95,78
Acheux-en-Vimeu,ACHEUX EN VIMEU,80210,80004,50.066667,1.683333,1.62,78
Acheville,ACHEVILLE,62320,62003,50.383333,2.883333,1.67,65
Achey,ACHEY,70180,70003,47.566667,5.6,1.78,34
Achicourt,ACHICOURT,62217,62004,50.266667,2.766667,1.24,65
Achiet-le-Grand,ACHIET LE GRAND,62121,62005,50.133333,2.783333,1.91,65
Achiet-le-Petit,ACHIET LE PETIT,62121,62006,50.116667,2.75,2.01,65
Achun,ACHUN,58110,58001,47.116667,3.666667,0.8,13
Achy,ACHY,60690,60004,49.566667,1.95,1.34,77
Acigné,ACIGNE,35690,35001,48.133333,-1.533333,0.39,18
Aclou,ACLOU,27800,27001,49.166667,0.7,1,69
Acon,ACON,27570,27002,48.766667,1.1,2.45,69
Acq,ACQ,62144,62007,50.35,2.65,0.91,65
Acqueville,ACQUEVILLE,50440,50001,49.608333,-1.75,-1,67
Acquigny,ACQUIGNY,27400,27003,49.166667,1.183333,0.84,69
Acy,ACY,02200,02003,49.35,3.416667,1.65,76
Acy-en-Multien,ACY EN MULTIEN,60620,60005,49.1,2.966667,2.36,77
Acy-Romance,ACY ROMANCE,08300,08001,49.5,4.333333,1.39,26
Adaincourt,ADAINCOURT,57580,57007,49,6.433333,0.56,54
Adainville,ADAINVILLE,78113,78006,48.716667,1.65,1.31,43
Adam-lès-Passavant,ADAM LES PASSAVANT,25360,25006,47.3,6.366667,0.88,32
Adam-lès-Vercel,ADAM LES VERCEL,25530,25007,47.166667,6.4,1.55,32
Adamswiller,ADAMSWILLER,67320,67002,48.9,7.2,1.78,1
Adast,ADAST,65260,65001,42.966667,-0.083333,1.7,61
Adé,ADE,65100,65002,43.133333,-0.033333,1.41,61
Adelange,ADELANGE,57380,57008,49,6.616667,0.69,54
Adilly,ADILLY,79200,79002,46.683333,-0.316667,1.22,81
Adinfer,ADINFER,62116,62009,50.183333,2.7,1.62,65
Adissan,ADISSAN,34230,34002,43.533333,3.433333,1.85,46
Adon,ADON,45230,45001,47.766667,2.8,1.48,25
Adriers,ADRIERS,86430,86001,46.25,0.8,1.74,82
Afa,AFA,20167,20001,41.983333,8.8,1.71,30
Affieux,AFFIEUX,19260,19001,45.516667,1.75,1.22,49
Affléville,AFFLEVILLE,54800,54004,49.266667,5.766667,1.96,52
Affoux,AFFOUX,69170,69001,45.833333,4.4,1.94,94
Affracourt,AFFRACOURT,54740,54005,48.466667,6.166667,1.2,52
Affringues,AFFRINGUES,62380,62010,50.683333,2.066667,1.29,65
Agassac,AGASSAC,31230,31001,43.366667,0.883333,0.73,58
Agay,AGAY,83530,83920,43.433333,6.85,2.42,87
Agde,AGDE,34300,34003,43.316667,3.466667,1.98,46
Agel,AGEL,34210,34004,43.333333,2.85,1.87,46
Agen,AGEN,47000,47001,44.2,0.633333,1.25,6
Agencourt,AGENCOURT,21700,21001,47.133333,4.983333,1.18,12
Agen-d'Aveyron,AGEN D AVEYRON,12630,12001,44.366667,2.683333,1,57
Agenville,AGENVILLE,80370,80005,50.166667,2.1,1.69,78
Agenvillers,AGENVILLERS,80150,80006,50.166667,1.916667,1.69,78
Ageville,AGEVILLE,52340,52001,48.116667,5.35,0.67,29
Agey,AGEY,21410,21002,47.283333,4.766667,0.56,12
Aghione,AGHIONE,20270,20002,42.1,9.4,1.45,31
Agincourt,AGINCOURT,54770,54006,48.733333,6.233333,1.75,52
Agmé,AGME,47350,47002,44.483333,0.333333,1.18,6
Agnac,AGNAC,47800,47003,44.65,0.366667,1.69,6
Agnat,AGNAT,43100,43001,45.35,3.466667,1.61,10
Agneaux,AGNEAUX,50180,50002,49.116667,-1.1,1.33,67
Agnetz,AGNETZ,60600,60007,49.383333,2.383333,1.52,77
Agnez-lès-Duisans,AGNEZ LES DUISANS,62161,62011,50.3,2.666667,1.45,65
Agnicourt-et-Séchelles,AGNICOURT ET SECHELLES,02340,02004,49.716667,3.95,1.84,76
Agnières,AGNIERES,62690,62012,50.35,2.6,0.76,65
Agnières,AGNIERES,80290,80007,49.716667,1.9,1.63,78
Agnières-en-Dévoluy,AGNIERES EN DEVOLUY,05250,05002,44.7,5.883333,0.86,84
Agnin,AGNIN,38150,38003,45.333333,4.866667,2.26,92
Agnos,AGNOS,64400,64007,43.166667,-0.616667,1.34,7
Agny,AGNY,62217,62013,50.266667,2.766667,1.24,65
Agonac,AGONAC,24460,24002,45.283333,0.75,1,3
Agon-Coutainville,AGON COUTAINVILLE,50230,50003,49.041667,-1.575,1.27,67
Agonès,AGONES,34190,34005,43.916667,3.75,2.49,46
Agonges,AGONGES,03210,03002,46.6,3.15,1.68,8
Agonnay,AGONNAY,17350,17001,45.883333,-0.733333,1.56,80
Agos-Vidalos,AGOS VIDALOS,65400,65004,43.033333,-0.066667,1.6,61
Agris,AGRIS,16110,16003,45.783333,0.333333,1.06,79
Agudelle,AGUDELLE,17500,17002,45.383333,-0.466667,1.61,80
Aguessac,AGUESSAC,12520,12002,44.15,3.1,1.65,57
Aguilcourt,AGUILCOURT,02190,02005,49.4,3.966667,1.92,76
Aguts,AGUTS,81470,81001,43.533333,1.916667,1.53,62
Agy,AGY,14400,14003,49.25,-0.766667,1.25,66
Ahaxe-Alciette-Bascassan,AHAXE ALCIETTE BASCASSAN,64220,64008,43.15,-1.166667,1.48,7
Ahetze,AHETZE,64210,64009,43.4,-1.566667,2.64,7
Ahéville,AHEVILLE,88500,88002,48.283333,6.2,1.55,55
Ahuillé,AHUILLE,53940,53001,48.016667,-0.883333,1,73
Ahun,AHUN,23150,23001,46.083333,2.05,0.59,50
Ahuy,AHUY,21121,21003,47.366667,5.033333,1.38,12
Aibes,AIBES,59149,59003,50.233333,4.1,2.17,64
Aibre,AIBRE,25750,25008,47.55,6.7,2.01,32
Aiffres,AIFFRES,79230,79003,46.283333,-0.416667,1.48,81
Aigaliers,AIGALIERS,30700,30001,44.066667,4.316667,1.49,45
Aiglemont,AIGLEMONT,08090,08003,49.783333,4.783333,2.1,26
Aiglepierre,AIGLEPIERRE,39110,39006,46.95,5.816667,1.67,33
Aigleville,AIGLEVILLE,27120,27004,49,1.416667,1.33,69
Aiglun,AIGLUN,04510,04001,44.066667,6.133333,0.91,83
Aiglun,AIGLUN,06910,06001,43.85,6.916667,1.08,85
Aignan,AIGNAN,32290,32001,43.7,0.083333,1.26,59
Aignay-le-Duc,AIGNAY LE DUC,21510,21004,47.666667,4.733333,1.44,12
Aigne,AIGNE,34210,34006,43.333333,2.816667,1.97,46
Aigné,AIGNE,72650,72001,48.066667,0.116667,0.9,74
Aignerville,AIGNERVILLE,14710,14004,49.316667,-0.916667,1.69,66
Aignes,AIGNES,31550,31002,43.316667,1.6,1.42,58
Aignes-et-Puypéroux,AIGNES ET PUYPEROUX,16190,16004,45.45,0.15,1.4,79
Aigneville,AIGNEVILLE,80210,80008,50.033333,1.616667,1.8,78
Aigny,AIGNY,51150,51003,49.033333,4.216667,0.95,28
Aigonnay,AIGONNAY,79370,79004,46.316667,-0.25,0.91,81
Aigre,AIGRE,16140,16005,45.9,0.016667,1.02,79
Aigrefeuille,AIGREFEUILLE,31280,31003,43.566667,1.6,1.36,58
Aigrefeuille-d'Aunis,AIGREFEUILLE D AUNIS,17290,17003,46.116667,-0.933333,1.37,80
Aigrefeuille-sur-Maine,AIGREFEUILLE SUR MAINE,44140,44002,47.066667,-1.4,1.62,71
Aigremont,AIGREMONT,30350,30002,43.966667,4.116667,0.39,45
Aigremont,AIGREMONT,52400,52002,48.016667,5.716667,2.1,29
Aigremont,AIGREMONT,78240,78007,48.9,2.016667,1.13,43
Aigremont,AIGREMONT,89800,89002,47.716667,3.883333,2.07,15
Aiguebelette-le-Lac,AIGUEBELETTE LE LAC,73610,73001,45.533333,5.816667,1.43,95
Aiguebelle,AIGUEBELLE,73220,73002,45.533333,6.3,0.61,95
Aigueblanche,AIGUEBLANCHE,73260,73003,45.5,6.5,1.03,95
Aiguefonde,AIGUEFONDE,81200,81002,43.483333,2.333333,1.82,62
Aigueperse,AIGUEPERSE,63260,63001,46.016667,3.2,1.61,11
Aigueperse,AIGUEPERSE,69790,69002,46.283333,4.433333,2.64,94
Aigues-Juntes,AIGUES JUNTES,09240,09001,43.05,1.466667,1.29,56
Aigues-Mortes,AIGUES MORTES,30220,30003,43.566667,4.191667,-1,45
Aigues-Vives,AIGUES VIVES,09600,09002,43,1.883333,1.51,56
Aigues-Vives,AIGUES VIVES,34210,34007,43.333333,2.816667,1.97,46
Aiguèze,AIGUEZE,30760,30005,44.3,4.566667,2.07,45
Aiguilles,AIGUILLES,05470,05003,44.783333,6.866667,2.47,84
Aiguillon,AIGUILLON,47190,47004,44.3,0.35,0.91,6
Aiguines,AIGUINES,83630,83002,43.766667,6.25,2.08,87
Aigurande,AIGURANDE,36140,36001,46.433333,1.833333,1.65,22
Ailefroide,AILEFROIDE,05340,05900,44.883333,6.45,2.13,84
Aillant-sur-Milleron,AILLANT SUR MILLERON,45230,45002,47.8,2.933333,1.89,25
Aillant-sur-Tholon,AILLANT SUR THOLON,89110,89003,47.866667,3.35,0.87,15
Aillas,AILLAS,33124,33002,44.466667,-0.066667,2.14,4
Ailleux,AILLEUX,42130,42002,45.8,3.95,1.35,93
Aillevans,AILLEVANS,70110,70005,47.583333,6.416667,1.14,34
Ailleville,AILLEVILLE,10200,10002,48.25,4.683333,1.83,27
Aillevillers-et-Lyaumont,AILLEVILLERS ET LYAUMONT,70320,70006,47.916667,6.333333,2.11,34
Aillianville,AILLIANVILLE,52700,52003,48.35,5.483333,1.47,29
Ailloncourt,AILLONCOURT,70300,70007,47.75,6.383333,1.02,34
Aillon-le-Jeune,AILLON LE JEUNE,73340,73004,45.616667,6.083333,1.66,95
Aillon-le-Vieux,AILLON LE VIEUX,73340,73005,45.65,6.1,0.91,95
Ailly-le-Haut-Clocher,AILLY LE HAUT CLOCHER,80690,80009,50.083333,2,1.07,78
Ailly-sur-Meuse,AILLY SUR MEUSE,55300,55003,48.866667,5.55,0.84,53
Ailly-sur-Noye,AILLY SUR NOYE,80250,80010,49.75,2.366667,1.38,78
Ailly-sur-Somme,AILLY SUR SOMME,80470,80011,49.916667,2.2,0.33,78
Aimargues,AIMARGUES,30470,30006,43.683333,4.2,2.49,45
Aime,AIME,73210,73006,45.55,6.65,1.57,95
Ainac,AINAC,04000,04002,44.216667,6.2,1.03,83
Ainay-le-Château,AINAY LE CHATEAU,03360,03003,46.716667,2.7,2.49,8
Ainay-le-Vieil,AINAY LE VIEIL,18200,18002,46.666667,2.55,1.75,20
Aincille,AINCILLE,64220,64011,43.15,-1.2,1.56,7
Aincourt,AINCOURT,95510,95008,49.066667,1.783333,1.74,42
Aincreville,AINCREVILLE,55110,55004,49.366667,5.116667,1.48,53
Aingeray,AINGERAY,54460,54007,48.733333,6,1,52
Aingeville,AINGEVILLE,88140,88003,48.2,5.766667,1.51,55
Aingoulaincourt,AINGOULAINCOURT,52230,52004,48.45,5.283333,1.53,29
Ainharp,AINHARP,64130,64012,43.266667,-0.933333,1.13,7
Ainhice-Mongelos,AINHICE MONGELOS,64220,64013,43.2,-1.15,1.41,7
Aïnhoa,AINHOA,64250,64014,43.3,-1.5,2.44,7
Ainvelle,AINVELLE,70800,70008,47.85,6.25,1.62,34
Ainvelle,AINVELLE,88320,88004,48,5.833333,2.11,55
Airaines,AIRAINES,80270,80013,49.966667,1.95,0.93,78
Airan,AIRAN,14370,14005,49.1,-0.15,0.58,66
Aire,AIRE,08190,08004,49.483333,4.166667,2.1,26
Airel,AIREL,50680,50004,49.216667,-1.083333,1.42,67
Aire-sur-l'Adour,AIRE SUR L ADOUR,40800,40001,43.7,-0.266667,1.56,5
Aire-sur-la-Lys,AIRE SUR LA LYS,62120,62014,50.633333,2.4,1,65
Airion,AIRION,60600,60008,49.433333,2.416667,0.95,77
Airon-Notre-Dame,AIRON NOTRE DAME,62180,62015,50.433333,1.666667,1.89,65
Airon-Saint-Vaast,AIRON SAINT VAAST,62180,62016,50.433333,1.666667,1.89,65
Airoux,AIROUX,11320,11002,43.366667,1.866667,1.71,44
Airvault,AIRVAULT,79600,79005,46.833333,-0.15,1.16,81
Aiserey,AISEREY,21110,21005,47.166667,5.166667,1.31,12
Aisey-et-Richecourt,AISEY ET RICHECOURT,70500,70009,47.883333,5.95,1.87,34
Aisey-sur-Seine,AISEY SUR SEINE,21400,21006,47.75,4.583333,1.85,12
Aisonville-et-Bernoville,AISONVILLE ET BERNOVILLE,02110,02006,49.933333,3.533333,1.59,76
Aissey,AISSEY,25360,25009,47.266667,6.333333,0.29,32
Aisy-sous-Thil,AISY SOUS THIL,21390,21007,47.4,4.283333,1.8,12
Aisy-sur-Armançon,AISY SUR ARMANCON,89390,89004,47.65,4.216667,2.24,15
Aiti,AITI,20244,20003,42.4,9.233333,1.75,31
Aiton,AITON,73220,73007,45.566667,6.25,1.61,95
Aix,AIX,19200,19002,45.616667,2.383333,2.03,49
Aix,AIX,59310,59004,50.483333,3.283333,0.69,64
Aix-en-Diois,AIX EN DIOIS,26150,26001,44.716667,5.416667,1.46,91
Aix-en-Ergny,AIX EN ERGNY,62650,62017,50.583333,2,1.32,65
Aix-en-Issart,AIX EN ISSART,62170,62018,50.483333,1.85,1.42,65
Aix-en-Othe,AIX EN OTHE,10160,10003,48.216667,3.733333,1.61,27
Aix-en-Provence,AIX EN PROVENCE,13100,13001,43.533333,5.433333,1.95,86
Aixe-sur-Vienne,AIXE SUR VIENNE,87700,87001,45.8,1.133333,0.52,51
Aix-la-Fayette,AIX LA FAYETTE,63980,63002,45.516667,3.533333,1.39,11
Aix-les-Bains,AIX LES BAINS,73100,73008,45.7,5.916667,1.33,95
Aix-Noulette,AIX NOULETTE,62160,62019,50.416667,2.7,1.5,65
Aizac,AIZAC,07530,07003,44.716667,4.333333,0.91,90
Aizanville,AIZANVILLE,52120,52005,48.1,4.9,1.59,29
Aize,AIZE,36150,36002,47.1,1.7,1.61,22
Aizecourt-le-Bas,AIZECOURT LE BAS,80240,80014,49.966667,3.05,1.97,78
Aizecourt-le-Haut,AIZECOURT LE HAUT,80200,80015,49.95,2.983333,1.79,78
Aizecq,AIZECQ,16700,16006,45.983333,0.283333,1.46,79
Aizelles,AIZELLES,02820,02007,49.483333,3.816667,1.26,76
Aizenay,AIZENAY,85190,85003,46.733333,-1.616667,1.12,75
Aizier,AIZIER,27500,27006,49.433333,0.633333,2.05,69
Ajac,AJAC,11300,11003,43.05,2.15,0.64,44
Ajaccio,AJACCIO,20000,20004,41.916667,8.733333,2.03,30
Ajain,AJAIN,23380,23002,46.2,2,1,50
Ajat,AJAT,24210,24004,45.15,1.016667,0.96,3
Ajoncourt,AJONCOURT,57590,57009,48.85,6.3,1.84,54
Ajou,AJOU,27410,27007,48.983333,0.783333,1.48,69
Ajoux,AJOUX,07000,07004,44.766667,4.516667,1.54,90
Alaigne,ALAIGNE,11240,11004,43.116667,2.1,0.86,44
Alaincourt,ALAINCOURT,02240,02009,49.75,3.366667,1.04,76
Alaincourt,ALAINCOURT,70210,70010,47.933333,6.1,2.23,34
Alaincourt-la-Côte,ALAINCOURT LA COTE,57590,57010,48.9,6.35,0.88,54
Alairac,ALAIRAC,11290,11005,43.183333,2.25,0.59,44
Alaise,ALAISE,25330,25010,47.016667,5.966667,1.51,32
Alan,ALAN,31420,31005,43.216667,0.95,1.09,58
Alando,ALANDO,20212,20005,42.3,9.283333,0.62,31
Alata,ALATA,20167,20006,41.95,8.75,1.95,30
Alban,ALBAN,81250,81003,43.9,2.466667,1.68,62
Albaret-le-Comtal,ALBARET LE COMTAL,48310,48001,44.866667,3.15,1.81,47
Albaret-Sainte-Marie,ALBARET SAINTE MARIE,48200,48002,44.883333,3.266667,1.91,47
Albas,ALBAS,11360,11006,43,2.733333,1.55,44
Albas,ALBAS,46140,46001,44.466667,1.233333,1.62,60
Albé,ALBE,67220,67003,48.35,7.316667,1.74,1
Albefeuille-Lagarde,ALBEFEUILLE LAGARDE,82290,82001,44.05,1.283333,0.39,63
Albens,ALBENS,73410,73010,45.783333,5.95,2.02,95
Albepierre-Bredons,ALBEPIERRE BREDONS,15300,15025,45.1,2.883333,0.88,9
Albert,ALBERT,80300,80016,50,2.65,0.92,78
Albertacce,ALBERTACCE,20224,20007,42.316667,8.983333,1.35,31
Albertville,ALBERTVILLE,73200,73011,45.683333,6.383333,1.19,95
Albestroff,ALBESTROFF,57670,57011,48.933333,6.85,0.74,54
Albi,ALBI,81000,81004,43.933333,2.15,0.79,62
Albiac,ALBIAC,46500,46002,44.766667,1.816667,1.2,60
Albias,ALBIAS,82350,82002,44.083333,1.45,1.03,63
Albières,ALBIERES,11330,11007,42.95,2.483333,1.27,44
Albiès,ALBIES,09310,09004,42.766667,1.7,1.8,56
Albiez-le-Jeune,ALBIEZ LE JEUNE,73300,73012,45.216667,6.35,2.68,95
Albiez-Montrond,ALBIEZ MONTROND,73300,73013,45.216667,6.333333,2.68,95
Albignac,ALBIGNAC,19190,19003,45.133333,1.683333,1.08,49
Albigny-sur-Saône,ALBIGNY SUR SAONE,69250,69003,45.816667,4.45,2.5,94
Albine,ALBINE,81240,81005,43.45,2.533333,2.01,62
Albiosc,ALBIOSC,04550,04003,43.75,6.016667,2.01,83
Albitreccia,ALBITRECCIA,20128,20008,41.85,8.933333,1.51,30
Albon,ALBON,26140,26002,45.233333,4.866667,2.05,91
Alboussière,ALBOUSSIERE,07440,07007,44.95,4.733333,1.4,90
Albussac,ALBUSSAC,19380,19004,45.133333,1.833333,1.19,49
Aldudes,ALDUDES,64430,64016,43.1,-1.433333,2.25,7
Alembon,ALEMBON,62850,62020,50.783333,1.883333,1.87,65
Alençon,ALENCON,61000,61001,48.433333,0.083333,1.55,68
Alénya,ALENYA,66200,66002,42.633333,2.983333,1.7,48
Aléria,ALERIA,20270,20009,42.1,9.516667,1.96,31
Alès,ALES,30100,30007,44.133333,4.083333,0.84,45
Alet-les-Bains,ALET LES BAINS,11580,11008,43,2.266667,1.71,44
Alette,ALETTE,62650,62021,50.516667,1.816667,1.7,65
Aleu,ALEU,09320,09005,42.9,1.266667,1.91,56
Alex,ALEX,74290,74003,45.883333,6.233333,1.29,96
Alexain,ALEXAIN,53240,53002,48.233333,-0.766667,0.87,73
Aleyrac,ALEYRAC,26770,26003,44.5,4.95,1.51,91
Alfortville,ALFORTVILLE,94140,94002,48.8,2.416667,0.64,41
Algajola,ALGAJOLA,20220,20010,42.616667,8.866667,1.67,31
Algans,ALGANS,81470,81006,43.6,1.883333,1.15,62
Algolsheim,ALGOLSHEIM,68600,68001,48,7.566667,2.29,2
Algrange,ALGRANGE,57440,57012,49.35,6.05,1.76,54
Alièze,ALIEZE,39270,39007,46.583333,5.583333,1.12,33
Alignan-du-Vent,ALIGNAN DU VENT,34290,34009,43.466667,3.35,1.31,46
Alincourt,ALINCOURT,08310,08005,49.4,4.35,1.4,26
Alincthun,ALINCTHUN,62142,62022,50.733333,1.8,1.58,65
Alise-Sainte-Reine,ALISE SAINTE REINE,21150,21008,47.533333,4.483333,1.1,12
Alissas,ALISSAS,07210,07008,44.716667,4.616667,1.37,90
Alix,ALIX,69380,69004,45.916667,4.65,1.49,94
Alixan,ALIXAN,26300,26004,44.966667,5.033333,1.51,91
Alizay,ALIZAY,27460,27008,49.316667,1.183333,1.26,69
Allain,ALLAIN,54170,54008,48.55,5.916667,0.89,52
Allaines,ALLAINES,80200,80017,49.95,2.95,1.71,78
Allainville,ALLAINVILLE,28500,28003,48.716667,1.3,1.6,21
Allainville-aux-Bois,ALLAINVILLE AUX BOIS,78660,78009,48.458333,1.9,-1,43
Allainville-en-Beauce,ALLAINVILLE EN BEAUCE,45480,45003,48.233333,2.05,1.81,25
Allaire,ALLAIRE,56350,56001,47.633333,-2.166667,1.73,19
Allamont,ALLAMONT,54800,54009,49.116667,5.766667,1.42,52
Allamps,ALLAMPS,54112,54010,48.55,5.816667,1.47,52
Allan,ALLAN,26780,26005,44.483333,4.783333,1.81,91
Allanche,ALLANCHE,15160,15001,45.233333,2.933333,1.16,9
Alland'huy-et-Sausseuil,ALLAND HUY ET SAUSSEUIL,08130,08006,49.516667,4.566667,0.64,26
Allarmont,ALLARMONT,88110,88005,48.483333,7.016667,2.3,55
Allas-Bocage,ALLAS BOCAGE,17150,17005,45.383333,-0.483333,1.87,80
Allas-Champagne,ALLAS CHAMPAGNE,17500,17006,45.466667,-0.333333,1.27,80
Allas-les-Mines,ALLAS LES MINES,24220,24006,44.833333,1.066667,1.14,3
Allassac,ALLASSAC,19240,19005,45.25,1.483333,1.47,49
Allauch,ALLAUCH,13190,13002,43.333333,5.483333,1.22,86
Allègre,ALLEGRE,30500,30008,44.216667,4.266667,1.52,45
Allègre,ALLEGRE,43270,43003,45.2,3.7,0.46,10
Alleins,ALLEINS,13980,13003,43.7,5.166667,1.21,86
Allemagne-en-Provence,ALLEMAGNE EN PROVENCE,04550,04004,43.783333,6.016667,1.81,83
Allemans-du-Dropt,ALLEMANS DU DROPT,47800,47005,44.633333,0.283333,1.58,6
Allemant,ALLEMANT,02320,02010,49.466667,3.45,1.2,76
Allemant,ALLEMANT,51120,51005,48.766667,3.8,1.08,28
Allenay,ALLENAY,80530,80018,50.083333,1.5,2.11,78
Allenc,ALLENC,48190,48003,44.533333,3.666667,1.1,47
Allenjoie,ALLENJOIE,25490,25011,47.533333,6.9,2,32
Allennes-les-Marais,ALLENNES LES MARAIS,59251,59005,50.533333,2.95,0.75,64
Allenwiller,ALLENWILLER,67310,67004,48.666667,7.383333,1.6,1
Allériot,ALLERIOT,71380,71004,46.816667,4.95,2.45,14
Allery,ALLERY,80270,80019,49.966667,1.9,1.05,78
Allès-sur-Dordogne,ALLES SUR DORDOGNE,24480,24005,44.85,0.866667,1.07,3
Alleuze,ALLEUZE,15100,15002,44.95,3.1,1.66,9
Allevard,ALLEVARD,38580,38006,45.4,6.066667,2.16,92
Allèves,ALLEVES,74540,74004,45.75,6.083333,2.15,96
Allex,ALLEX,26400,26006,44.766667,4.916667,1.49,91
Alleyrac,ALLEYRAC,43150,43004,44.883333,3.966667,1.97,10
Alleyras,ALLEYRAS,43580,43005,44.9,3.683333,1.84,10
Alleyrat,ALLEYRAT,23200,23003,45.983333,2.15,0.81,50
Allez-et-Cazeneuve,ALLEZ ET CAZENEUVE,47110,47006,44.4,0.616667,1.14,6
Alliancelles,ALLIANCELLES,51250,51006,48.8,4.883333,1.97,28
Alliat,ALLIAT,09400,09006,42.816667,1.583333,1.35,56
Allibaudières,ALLIBAUDIERES,10700,10004,48.583333,4.116667,1.96,27
Allichamps,ALLICHAMPS,52130,52006,48.566667,4.883333,2.04,29
Allier,ALLIER,65360,65005,43.183333,0.116667,0.91,61
Allières,ALLIERES,09240,09007,43.033333,1.35,1.47,56
Alligny-Cosne,ALLIGNY COSNE,58200,58002,47.45,3.066667,1.76,13
Alligny-en-Morvan,ALLIGNY EN MORVAN,58230,58003,47.2,4.166667,2.93,13
Allineuc,ALLINEUC,22460,22001,48.316667,-2.866667,1.24,16
Allinges,ALLINGES,74200,74005,46.333333,6.466667,1.87,96
Allogny,ALLOGNY,18110,18004,47.216667,2.316667,2.16,20
Allondans,ALLONDANS,25550,25013,47.516667,6.75,1.8,32
Allondaz,ALLONDAZ,73200,73014,45.7,6.366667,1.33,95
Allondrelle-la-Malmaison,ALLONDRELLE LA MALMAISON,54260,54011,49.516667,5.566667,2.73,52
Allonne,ALLONNE,60000,60009,49.4,2.116667,1.3,77
Allonne,ALLONNE,79130,79007,46.583333,-0.383333,0.9,81
Allonnes,ALLONNES,28150,28004,48.333333,1.666667,1.22,21
Allonnes,ALLONNES,72700,72003,47.966667,0.15,0.76,74
Allons,ALLONS,04170,04005,43.966667,6.6,1.75,83
Allons,ALLONS,47420,47007,44.2,-0.05,2.26,6
Allonville,ALLONVILLE,80260,80020,49.933333,2.35,0.79,78
Allonzier-la-Caille,ALLONZIER LA CAILLE,74350,74006,46,6.116667,0.82,96
Allos,ALLOS,04260,04006,44.233333,6.633333,1.88,83
Allouagne,ALLOUAGNE,62157,62023,50.533333,2.5,0.48,65
Alloué,ALLOUE,16490,16007,46.033333,0.516667,1.73,79
Allouis,ALLOUIS,18500,18005,47.166667,2.233333,1.26,20
Allouville-Bellefosse,ALLOUVILLE BELLEFOSSE,76190,76001,49.6,0.683333,1.25,70
Alluy,ALLUY,58110,58004,47.033333,3.633333,0.66,13
Alluyes,ALLUYES,28800,28005,48.233333,1.366667,1.02,21
Ally,ALLY,43380,43006,45.158333,3.308333,-1,10
Almayrac,ALMAYRAC,81190,81008,44.1,2.166667,1.75,62
Almenêches,ALMENECHES,61570,61002,48.7,0.116667,1.49,68
Alos,ALOS,09200,09008,"42,908055","1,145",,56
Alos,ALOS,81140,81007,44.016667,1.883333,1.27,62
Aloxe-Corton,ALOXE CORTON,21420,21010,47.066667,4.866667,1.51,12
Alpuech,ALPUECH,12210,12005,44.75,2.85,2.03,57
Alquines,ALQUINES,62850,62024,50.75,2,1.9,65
Alrance,ALRANCE,12430,12006,44.133333,2.683333,1.12,57
Alsting,ALSTING,57520,57013,49.183333,6.983333,1.77,54
Altagene,ALTAGENE,20112,20011,41.7,9.066667,2.09,30
Alteckendorf,ALTECKENDORF,67270,67005,48.783333,7.6,1.2,1
Altenach,ALTENACH,68210,68002,47.616667,7.116667,1.25,2
Altenbach,ALTENBACH,68760,68003,47.883333,7.083333,1.51,2
Altenheim,ALTENHEIM,67490,67006,48.716667,7.466667,1.1,1
Altenstadt,ALTENSTADT,67160,67007,49.033333,7.966667,2.15,1
Althen-des-Paluds,ALTHEN DES PALUDS,84210,84001,44,4.95,2.4,88
Altier,ALTIER,48800,48004,44.466667,3.866667,1.81,47
Altillac,ALTILLAC,19120,19007,44.966667,1.866667,2.08,49
Altkirch,ALTKIRCH,68130,68004,47.616667,7.25,1.37,2
Altorf,ALTORF,67120,67008,48.516667,7.533333,0.86,1
Altrippe,ALTRIPPE,57660,57014,49.033333,6.816667,0.83,54
Altviller,ALTVILLER,57730,57015,49.083333,6.733333,0.38,54
Altwiller,ALTWILLER,67260,67009,48.933333,6.966667,2.98,1
Aluze,ALUZE,71510,71005,46.85,4.683333,1.26,14
Alvignac,ALVIGNAC,46500,46003,44.833333,1.7,1.28,60
Alvimare,ALVIMARE,76640,76002,49.6,0.633333,1.17,70
Alzen,ALZEN,09240,09009,42.983333,1.466667,1.12,56
Alzi,ALZI,20212,20013,42.3,9.3,0.7,31
Alzing,ALZING,57320,57016,49.283333,6.55,1.36,54
Alzon,ALZON,30770,30009,43.966667,3.44004,-1,45
Alzonne,ALZONNE,11170,11009,43.266667,2.183333,1.03,44
Amage,AMAGE,70280,70011,47.833333,6.5,1.5,34
Amagne,AMAGNE,08300,08008,49.516667,4.5,1.86,26
Amagney,AMAGNEY,25220,25014,47.3,6.15,1.26,32
Amailloux,AMAILLOUX,79350,79008,46.75,-0.316667,0.96,81
Amance,AMANCE,10140,10005,48.3,4.516667,1.23,27
Amance,AMANCE,54770,54012,48.766667,6.283333,0.93,52
Amance,AMANCE,70160,70012,47.8,6.066667,1.26,34
Amancey,AMANCEY,25330,25015,47.033333,6.083333,1.23,32
Amancy,AMANCY,74800,74007,46.066667,6.333333,0.54,96
Amange,AMANGE,39700,39008,47.15,5.566667,2,33
Amanlis,AMANLIS,35150,35002,48,-1.483333,0.96,18
Amanty,AMANTY,55130,55005,48.516667,5.616667,2.01,53
Amanvillers,AMANVILLERS,57111,57017,49.166667,6.033333,1.81,54
Amanzé,AMANZE,71610,71006,46.333333,4.233333,1.58,14
Amareins,AMAREINS,01090,01003,46.083333,4.8,1.85,89
Amarens,AMARENS,81170,81009,44.033333,1.933333,1.37,62
Amathay-Vésigneux,AMATHAY VESIGNEUX,25330,25016,47.016667,6.2,1.81,32
Amayé-sur-Orne,AMAYE SUR ORNE,14210,14006,49.083333,-0.433333,1.68,66
Amayé-sur-Seulles,AMAYE SUR SEULLES,14310,14007,49.083333,-0.716667,1.68,66
Amazy,AMAZY,58190,58005,47.383333,3.583333,1.36,13
Ambacourt,AMBACOURT,88500,88006,48.35,6.15,1.08,55
Ambax,AMBAX,31230,31007,43.366667,0.933333,1.27,58
Ambazac,AMBAZAC,87240,87002,45.95,1.4,1,51
Ambel,AMBEL,38970,38008,44.816667,5.933333,2.54,92
Ambenay,AMBENAY,27250,27009,48.833333,0.733333,2,69
Ambérac,AMBERAC,16140,16008,45.85,0.066667,1.15,79
Ambérieu-en-Bugey,AMBERIEU EN BUGEY,01500,01004,45.95,5.35,0.8,89
Ambérieux-en-Dombes,AMBERIEUX EN DOMBES,01330,01005,46,4.9,1.72,89
Ambernac,AMBERNAC,16490,16009,45.983333,0.533333,1.73,79
Amberre,AMBERRE,86110,86002,46.783333,0.15,1.08,82
Ambert,AMBERT,63600,63003,45.55,3.75,2.24,11
Ambès,AMBES,33810,33004,45.016667,-0.533333,1.03,4
Ambeyrac,AMBEYRAC,12260,12007,44.516667,1.95,2.32,57
Ambialet,AMBIALET,81430,81010,43.933333,2.383333,1.28,62
Ambiegna,AMBIEGNA,20151,20014,42.083333,8.783333,1.79,30
Ambierle,AMBIERLE,42820,42003,46.1,3.9,1.8,93
Ambiévillers,AMBIEVILLERS,70210,70013,47.966667,6.15,2.48,34
Ambillou,AMBILLOU,37340,37002,47.45,0.45,2.09,23
Ambillou-Château,AMBILLOU CHATEAU,49700,49003,47.266667,-0.35,1.04,72
Amblaincourt,AMBLAINCOURT,55250,55006,48.966667,5.216667,1.25,53
Amblainville,AMBLAINVILLE,60110,60010,49.2,2.116667,1.63,77
Amblans-et-Velotte,AMBLANS ET VELOTTE,70200,70014,47.683333,6.416667,1.34,34
Ambleny,AMBLENY,02290,02011,49.383333,3.183333,1.5,76
Ambléon,AMBLEON,01300,01006,45.75,5.6,2.01,89
Ambleteuse,AMBLETEUSE,62164,62025,50.8,1.6,2.08,65
Ambleville,AMBLEVILLE,16300,16010,45.55,-0.216667,1.65,79
Ambleville,AMBLEVILLE,95710,95011,49.15,1.7,2.14,42
Amblie,AMBLIE,14480,14008,49.3,-0.483333,1.46,66
Amblimont,AMBLIMONT,08210,08009,49.633333,5.066667,1.77,26
Ambloy,AMBLOY,41310,41001,47.716667,0.966667,1.37,24
Ambly-Fleury,AMBLY FLEURY,08130,08010,49.483333,4.483333,1.87,26
Ambly-sur-Meuse,AMBLY SUR MEUSE,55300,55007,49.016667,5.45,1.73,53
Amboise,AMBOISE,37400,37003,47.416667,0.983333,1.29,23
Ambon,AMBON,56190,56002,47.55,-2.566667,1.6,19
Ambonil,AMBONIL,26800,26007,44.783333,4.9,1.21,91
Ambonnay,AMBONNAY,51150,51007,49.066667,4.166667,0.55,28
Ambonville,AMBONVILLE,52110,52007,48.316667,5.016667,1.39,29
Ambourville,AMBOURVILLE,76480,76003,49.466667,0.933333,1.57,70
Ambrault,AMBRAULT,36120,36003,46.783333,1.966667,1.4,22
Ambres,AMBRES,81500,81011,43.733333,1.816667,1.47,62
Ambricourt,AMBRICOURT,62310,62026,50.466667,2.183333,1.17,65
Ambrief,AMBRIEF,02200,02012,49.316667,3.4,1.5,76
Ambrières,AMBRIERES,51290,51008,48.633333,4.833333,2.03,28
Ambrines,AMBRINES,62127,62027,50.316667,2.466667,0.9,65
Ambronay,AMBRONAY,01500,01007,46,5.35,1.34,89
Ambrugeat,AMBRUGEAT,19250,19008,45.533333,2.133333,1.32,49
Ambrumesnil,AMBRUMESNIL,76550,76004,49.866667,1,1.74,70
Ambrus,AMBRUS,47160,47008,44.216667,0.233333,1.43,6
Ambutrix,AMBUTRIX,01500,01008,45.933333,5.333333,0.9,89
Amécourt,AMECOURT,27140,27010,49.383333,1.733333,2.35,69
Amélécourt,AMELECOURT,57170,57018,48.833333,6.5,1.25,54
Amélie-les-Bains-Palalda,AMELIE LES BAINS PALALDA,66110,66003,42.466667,2.666667,1.53,48
Amel-sur-l'Étang,AMEL SUR L ETANG,55230,55008,49.266667,5.65,1.37,53
Amendeuix-Oneix,AMENDEUIX ONEIX,64120,64018,43.35,-1.033333,1.07,7
Amenoncourt,AMENONCOURT,54450,54013,48.633333,6.783333,2.23,52
Amenucourt,AMENUCOURT,95510,95012,49.1,1.65,2.37,42
Ames,AMES,62190,62028,50.55,2.416667,0.65,65
Amettes,AMETTES,62260,62029,50.533333,2.4,1.39,65
Ameugny,AMEUGNY,71460,71007,46.516667,4.683333,1.4,14
Ameuvelle,AMEUVELLE,88410,88007,47.95,5.95,2.57,55
Amfreville,AMFREVILLE,50480,50005,49.416667,-1.383333,1.85,67
Amfréville,AMFREVILLE,14860,14009,49.25,-0.233333,1.02,66
Amfreville-la-Campagne,AMFREVILLE LA CAMPAGNE,27370,27011,49.216667,0.95,0.59,69
Amfreville-la-Mi-Voie,AMFREVILLE LA MI VOIE,76920,76005,49.4,1.116667,2.07,70
Amfreville-les-Champs,AMFREVILLE LES CHAMPS,27380,27012,49.316667,1.316667,1.26,69
Amfreville-les-Champs,AMFREVILLE LES CHAMPS,76560,76006,49.7,0.816667,0.54,70
Amfreville-sous-les-Monts,AMFREVILLE SOUS LES MONTS,27380,27013,49.3,1.266667,1.15,69
Amfreville-sur-Iton,AMFREVILLE SUR ITON,27400,27014,49.15,1.15,0.62,69
Amfroipret,AMFROIPRET,59144,59006,50.283333,3.733333,1.73,64
Amiens,AMIENS,80000,80021,49.9,2.3,0.28,78
Amifontaine,AMIFONTAINE,02190,02013,49.483333,3.916667,1.7,76
Amigny,AMIGNY,50620,50006,49.15,-1.183333,1.25,67
Amigny-Rouy,AMIGNY ROUY,02700,02014,49.6,3.3,1.33,76
Amillis,AMILLIS,77120,77002,48.733333,3.133333,1.34,40
Amilly,AMILLY,28300,28006,48.45,1.4,0.98,21
Amions,AMIONS,42260,42004,45.883333,4.033333,0.84,93
Amirat,AMIRAT,06910,06002,43.9,6.816667,1.64,85
Ammerschwihr,AMMERSCHWIHR,68770,68005,48.116667,7.283333,1.73,2
Ammerzwiller,AMMERZWILLER,68210,68006,47.683333,7.166667,1.37,2
Ammeville,AMMEVILLE,14170,14010,48.933333,0.033333,1.45,66
Amnéville,AMNEVILLE,57360,57019,49.266667,6.15,1.45,54
Amoncourt,AMONCOURT,70170,70015,47.733333,6.066667,0.77,34
Amondans,AMONDANS,25330,25017,47.066667,6.033333,1.24,32
Amorots-Succos,AMOROTS SUCCOS,64120,64019,43.366667,-1.1,1.26,7
Amou,AMOU,40330,40002,43.6,-0.75,1.2,5
Ampilly-les-Bordes,AMPILLY LES BORDES,21450,21011,47.633333,4.633333,1.28,12
Ampilly-le-Sec,AMPILLY LE SEC,21400,21012,47.8,4.516667,2.1,12
Amplaing,AMPLAING,09400,09010,42.883333,1.616667,1.35,56
Amplepuis,AMPLEPUIS,69550,69006,45.983333,4.333333,2.45,94
Amplier,AMPLIER,62760,62030,50.133333,2.4,1.91,65
Ampoigné,AMPOIGNE,53200,53004,47.816667,-0.816667,1.66,73
Amponville,AMPONVILLE,77760,77003,48.283333,2.533333,1.84,40
Ampriani,AMPRIANI,20272,20015,42.25,9.35,0.94,31
Ampuis,AMPUIS,69420,69007,45.483333,4.816667,2.34,94
Ampus,AMPUS,83111,83003,43.6,6.383333,1.12,87
Amuré,AMURE,79210,79009,46.266667,-0.616667,1.73,81
Amy,AMY,60310,60011,49.65,2.833333,1.62,77
Anais,ANAIS,17540,17007,46.183333,-0.908333,-1,80
Anan,ANAN,31230,31008,43.35,0.833333,0.88,58
Ance,ANCE,64570,64020,43.15,-0.7,1.48,7
Anceaumeville,ANCEAUMEVILLE,76710,76007,49.583333,1.05,0.92,70
Ancelle,ANCELLE,05260,05004,44.633333,6.2,0.89,84
Ancemont,ANCEMONT,55320,55009,49.066667,5.416667,0.92,53
Ancenis,ANCENIS,44150,44003,47.366667,-1.166667,1.73,71
Ancerville,ANCERVILLE,57580,57020,49.033333,6.383333,0.85,54
Ancerviller,ANCERVILLER,54450,54014,48.533333,6.833333,2.41,52
Ancey,ANCEY,21410,21013,47.333333,4.833333,1.46,12
Anchamps,ANCHAMPS,08500,08011,49.933333,4.683333,2.09,26
Anché,ANCHE,37500,37004,47.133333,0.3,1.43,23
Anché,ANCHE,86700,86003,46.35,0.266667,1.31,82
Anchenoncourt-et-Chazel,ANCHENONCOURT ET CHAZEL,70210,70017,47.866667,6.116667,1.74,34
Ancienville,ANCIENVILLE,02600,02015,49.216667,3.216667,1.36,76
Ancier,ANCIER,70100,70018,47.45,5.633333,1.66,34
Ancinnes,ANCINNES,72610,72005,48.366667,0.183333,1.83,74
Ancizan,ANCIZAN,65440,65006,42.883333,0.333333,1.77,61
Ancône,ANCONE,26200,26008,44.583333,4.733333,2.07,91
Ancourt,ANCOURT,76370,76008,49.9,1.183333,1.69,70
Ancretteville-sur-Mer,ANCRETTEVILLE SUR MER,76540,76011,49.783333,0.516667,1.36,70
Ancteville,ANCTEVILLE,50200,50007,49.1,-1.483333,0.77,67
Anctoville,ANCTOVILLE,14240,14011,49.1,-0.7,1.1,66
Ancy,ANCY,69490,69008,45.833333,4.516667,1.31,94
Ancy-le-Franc,ANCY LE FRANC,89160,89005,47.766667,4.166667,2.06,15
Ancy-le-Libre,ANCY LE LIBRE,89160,89006,47.8,4.116667,1.88,15
Ancy-sur-Moselle,ANCY SUR MOSELLE,57130,57021,49.05,6.066667,1.71,54
Andainville,ANDAINVILLE,80140,80022,49.9,1.783333,1.36,78
Andance,ANDANCE,07340,07009,45.233333,4.783333,2.03,90
Andancette,ANDANCETTE,26140,26009,45.233333,4.8,2.05,91
Andard,ANDARD,49800,49004,47.45,-0.4,0.5,72
Andé,ANDE,27430,27015,49.233333,1.233333,0.96,69
Andechy,ANDECHY,80700,80023,49.716667,2.716667,1.63,78
Andel,ANDEL,22400,22002,48.5,-2.566667,0.78,16
Andelain,ANDELAIN,02800,02016,49.633333,3.366667,0.91,76
Andelaroche,ANDELAROCHE,03120,03004,46.25,3.75,1.75,8
Andelarre,ANDELARRE,70000,70019,47.583333,6.1,0.67,34
Andelarrot,ANDELARROT,70000,70020,47.583333,6.1,0.67,34
Andelat,ANDELAT,15100,15004,45.066667,3.066667,1.54,9
Andelnans,ANDELNANS,90400,90001,47.6,6.866667,1.04,35
Andelot-en-Montagne,ANDELOT EN MONTAGNE,39110,39009,46.85,5.933333,1.72,33
Andelu,ANDELU,78770,78013,48.883333,1.816667,1.19,43
Andernay,ANDERNAY,55800,55011,48.8,4.95,2.3,53
Andernos-les-Bains,ANDERNOS LES BAINS,33510,33005,44.74288,-1.1,-1,4
Anderny,ANDERNY,54560,54015,49.333333,5.866667,2.04,52
Andert-et-Condon,ANDERT ET CONDON,01300,01009,45.8,5.65,1.71,89
Andevanne,ANDEVANNE,08240,08012,49.383333,5.083333,1.84,26
Andeville,ANDEVILLE,60570,60012,49.25,2.166667,1.27,77
Andigné,ANDIGNE,49220,49005,47.666667,-0.783333,1.57,72
Andillac,ANDILLAC,81140,81012,44,1.9,1.17,62
Andilly,ANDILLY,17230,17008,46.25,-1.033333,1.91,80
Andilly,ANDILLY,54200,54016,48.766667,5.883333,1,52
Andilly,ANDILLY,74350,74009,46.05,6.066667,1.04,96
Andilly,ANDILLY,95580,95014,49,2.3,1.51,42
Andilly-en-Bassigny,ANDILLY EN BASSIGNY,52360,52009,47.916667,5.516667,1.2,29
Andiran,ANDIRAN,47170,47009,44.1,0.266667,1.91,6
Andoins,ANDOINS,64420,64021,43.3,-0.233333,1.49,7
Andolsheim,ANDOLSHEIM,68280,68007,48.066667,7.416667,1.66,2
Andon,ANDON,06750,06003,43.766667,6.783333,1.83,85
Andonville,ANDONVILLE,45480,45005,48.266667,2.016667,2.05,25
Andornay,ANDORNAY,70200,70021,47.65,6.6,1.79,34
Andouillé,ANDOUILLE,53240,53005,48.183333,-0.783333,0.55,73
Andouillé-Neuville,ANDOUILLE NEUVILLE,35250,35003,48.3,-1.583333,1.29,18
Andrein,ANDREIN,64390,64022,43.383333,-0.9,0.67,7
Andres,ANDRES,62340,62031,50.866667,1.916667,2.35,65
Andrest,ANDREST,65390,65007,43.316667,0.066667,1.26,61
Andrésy,ANDRESY,78570,78015,48.983333,2.066667,1.45,43
Andrezé,ANDREZE,49600,49006,47.166667,-0.966667,1.43,72
Andrezel,ANDREZEL,77390,77004,48.6,2.816667,0.61,40
Andryes,ANDRYES,89480,89007,47.516667,3.483333,1.68,15
Anduze,ANDUZE,30140,30010,44.05,3.983333,0.86,45
Anéran-Camors,ANERAN CAMORS,65510,65008,42.833333,0.416667,2.12,61
Anères,ANERES,65150,65009,43.066667,0.483333,1.58,61
Anet,ANET,28260,28007,48.85,1.433333,2.33,21
Anetz,ANETZ,44150,44004,47.383333,-1.1,1.95,71
Angaïs,ANGAIS,64510,64023,43.233333,-0.25,1.64,7
Angé,ANGE,41400,41002,47.316667,1.233333,1.94,24
Angeac-Champagne,ANGEAC CHAMPAGNE,16130,16012,45.6,-0.3,2.03,79
Angeac-Charente,ANGEAC CHARENTE,16120,16013,45.633333,-0.066667,0.97,79
Angecourt,ANGECOURT,08450,08013,49.633333,4.983333,1.41,26
Angeduc,ANGEDUC,16300,16014,45.483333,-0.05,1.4,79
Angely,ANGELY,89440,89008,47.566667,4.016667,1.52,15
Angeot,ANGEOT,90150,90002,47.7,7.016667,1.37,35
Angers,ANGERS,49000,49007,47.466667,-0.55,1,72
Angerville,ANGERVILLE,14430,14012,49.25,-0.033333,1.02,66
Angerville,ANGERVILLE,91670,91016,48.316667,2,2.42,37
Angerville-Bailleul,ANGERVILLE BAILLEUL,76110,76012,49.666667,0.45,1.56,70
Angerville-la-Campagne,ANGERVILLE LA CAMPAGNE,27930,27017,48.991667,1.166667,-1,69
Angerville-la-Martel,ANGERVILLE LA MARTEL,76540,76013,49.766667,0.5,1.41,70
Angerville-l'Orcher,ANGERVILLE L ORCHER,76280,76014,49.583333,0.283333,2.05,70
Angervilliers,ANGERVILLIERS,91470,91017,48.583333,2.066667,1.7,37
Angeville,ANGEVILLE,82210,82003,44,1.033333,0.74,63
Angevillers,ANGEVILLERS,57440,57022,49.383333,6.033333,1.94,54
Angey,ANGEY,50530,50009,48.75,-1.5,1.17,67
Angicourt,ANGICOURT,60940,60013,49.316667,2.5,1.2,77
Angiens,ANGIENS,76740,76015,49.833333,0.783333,1.33,70
Angirey,ANGIREY,70700,70022,47.45,5.783333,1.3,34
Angivillers,ANGIVILLERS,60130,60014,49.5,2.5,1.25,77
Anglade,ANGLADE,33390,33006,45.216667,-0.633333,2.04,4
Anglards-de-Saint-Flour,ANGLARDS DE SAINT FLOUR,15100,15005,44.983333,3.166667,1.9,9
Anglards-de-Salers,ANGLARDS DE SALERS,15380,15006,45.216667,2.45,1.17,9
Anglars,ANGLARS,46120,46004,44.733333,1.916667,1.21,60
Anglars-Juillac,ANGLARS JUILLAC,46140,46005,44.483333,1.216667,1.69,60
Anglars-Nozac,ANGLARS NOZAC,46300,46006,44.783333,1.416667,0.96,60
Anglars-Saint-Félix,ANGLARS SAINT FELIX,12390,12008,44.416667,2.216667,1.72,57
Anglefort,ANGLEFORT,01350,01010,45.916667,5.808333,-1,89
Anglemont,ANGLEMONT,88700,88008,48.383333,6.666667,1.39,55
Angles,ANGLES,04170,04007,43.933333,6.566667,1.63,83
Angles,ANGLES,85750,85004,46.4,-1.4,1.58,75
Anglès,ANGLES,81260,81014,43.566667,2.566667,2.17,62
Anglesqueville-l'Esneval,ANGLESQUEVILLE L ESNEVAL,76280,76017,49.633333,0.233333,2.2,70
Angles-sur-l'Anglin,ANGLES SUR L ANGLIN,86260,86004,46.7,0.883333,2.1,82
Anglet,ANGLET,64600,64024,43.483333,-1.533333,2.54,7
Anglure,ANGLURE,51260,51009,48.583333,3.816667,2.04,28
Anglure-sous-Dun,ANGLURE SOUS DUN,71170,71008,46.233333,4.366667,2.13,14
Anglus,ANGLUS,52220,52010,48.4,4.733333,2.35,29
Angluzelles-et-Courcelles,ANGLUZELLES ET COURCELLES,51230,51010,48.666667,3.883333,1.59,28
Angoisse,ANGOISSE,24270,24008,45.416667,1.133333,1.6,3
Angomont,ANGOMONT,54540,54017,48.516667,6.95,2.83,52
Angos,ANGOS,65690,65010,43.2,0.15,0.73,61
Angoulême,ANGOULEME,16000,16015,45.65,0.15,0.33,79
Angoumé,ANGOUME,40990,40003,43.666667,-1.133333,1.34,5
Angous,ANGOUS,64190,64025,43.3,-0.816667,0.72,7
Angoville,ANGOVILLE,14220,14013,48.933333,-0.383333,1.45,66
Angoville-au-Plain,ANGOVILLE AU PLAIN,50480,50010,49.35,-1.25,1.09,67
Angoville-en-Saire,ANGOVILLE EN SAIRE,50330,50011,49.683333,-1.366667,1.98,67
Angoville-sur-Ay,ANGOVILLE SUR AY,50430,50012,49.25,-1.55,1.14,67
Angres,ANGRES,62143,62032,50.416667,2.75,1.19,65
Angresse,ANGRESSE,40150,40004,43.65,-1.383333,2.13,5
Angrie,ANGRIE,49440,49008,47.566667,-0.966667,1.36,72
Anguerny,ANGUERNY,14610,14014,49.266667,-0.4,1.15,66
Anguilcourt-le-Sart,ANGUILCOURT LE SART,02800,02017,49.683333,3.433333,1.02,76
Angviller-lès-Bisping,ANGVILLER LES BISPING,57930,57023,48.816667,6.883333,1.53,54
Angy,ANGY,60250,60015,49.35,2.333333,0.62,77
Anhaux,ANHAUX,64220,64026,43.166667,-1.283333,1.81,7
Anhiers,ANHIERS,59194,59007,50.4,3.15,1,64
Aniane,ANIANE,34150,34010,43.683333,3.583333,0.75,46
Aniche,ANICHE,59580,59008,50.333333,3.25,1,64
Anisy,ANISY,14610,14015,49.25,-0.383333,1.02,66
Anizy-le-Château,ANIZY LE CHATEAU,02320,02018,49.5,3.45,0.36,76
Anjeux,ANJEUX,70800,70023,47.883333,6.2,1.87,34
Anjou,ANJOU,38150,38009,45.35,4.883333,2.2,92
Anjouin,ANJOUIN,36210,36004,47.2,1.783333,2.09,22
Anjoutey,ANJOUTEY,90170,90003,47.7,6.933333,1.22,35
Anla,ANLA,65370,65012,43,0.583333,2.15,61
Anlezy,ANLEZY,58270,58006,46.966667,3.5,0.95,13
Anlhiac,ANLHIAC,24160,24009,45.316667,1.133333,1.37,3
Annay,ANNAY,58450,58007,47.533333,2.933333,2.33,13
Annay,ANNAY,62880,62033,50.466667,2.883333,1.57,65
Annay-la-Côte,ANNAY LA COTE,89200,89009,47.533333,3.883333,1.59,15
Annay-sur-Serein,ANNAY SUR SEREIN,89310,89010,47.733333,3.966667,1.34,15
Annebault,ANNEBAULT,14430,14016,49.25,0.066667,1.8,66
Annebecq,ANNEBECQ,14380,14017,48.9,-0.966667,1.84,66
Annecy,ANNECY,74000,74010,45.9,6.116667,1.12,96
Annecy-le-Vieux,ANNECY LE VIEUX,74940,74011,45.916667,6.15,1,96
Annelles,ANNELLES,08310,08014,49.433333,4.416667,1.18,26
Annemasse,ANNEMASSE,74100,74012,46.2,6.25,0.95,96
Annéot,ANNEOT,89200,89011,47.516667,3.883333,1.68,15
Annepont,ANNEPONT,17350,17011,45.85,-0.616667,0.91,80
Annequin,ANNEQUIN,62149,62034,50.5,2.716667,1.1,65
Annesse-et-Beaulieu,ANNESSE ET BEAULIEU,24430,24010,45.166667,0.55,1.38,3
Annet-sur-Marne,ANNET SUR MARNE,77410,77005,48.916667,2.716667,1.19,40
Anneux,ANNEUX,59400,59010,50.15,3.116667,2.26,64
Anneville-Ambourville,ANNEVILLE AMBOURVILLE,76480,76020,49.466667,0.883333,1.57,70
Anneville-en-Saire,ANNEVILLE EN SAIRE,50760,50013,49.633333,-1.283333,1.81,67
Annéville-la-Prairie,ANNEVILLE LA PRAIRIE,52310,52011,48.2,5.083333,0.81,29
Anneville-sur-Mer,ANNEVILLE SUR MER,50560,50014,49.116667,-1.583333,1.32,67
Anneville-sur-Scie,ANNEVILLE SUR SCIE,76590,76019,49.833333,1.083333,1.19,70
Anneyron,ANNEYRON,26140,26010,45.266667,4.9,2.18,91
Annezay,ANNEZAY,17380,17012,46.016667,-0.716667,0.96,80
Annezin,ANNEZIN,62232,62035,50.533333,2.616667,0.81,65
Annoeullin,ANNOEULLIN,59112,59011,50.533333,2.933333,1,64
Annoire,ANNOIRE,39120,39011,46.95,5.283333,2.41,33
Annois,ANNOIS,02480,02019,49.716667,3.166667,1.58,76
Annoisin-Chatelans,ANNOISIN CHATELANS,38460,38010,45.75,5.283333,2.05,92
Annoix,ANNOIX,18340,18006,46.95,2.55,1.38,20
Annonay,ANNONAY,07100,07010,45.233333,4.666667,2.03,90
Annonville,ANNONVILLE,52230,52012,48.383333,5.266667,1.29,29
Annot,ANNOT,04240,04008,43.966667,6.666667,2.01,83
Annouville-Vilmesnil,ANNOUVILLE VILMESNIL,76110,76021,49.683333,0.433333,1.61,70
Annoux,ANNOUX,89440,89012,47.633333,4.05,1.64,15
Annoville,ANNOVILLE,50660,50015,48.966667,-1.533333,1.39,67
Anor,ANOR,59186,59012,50,4.1,2.17,64
Anos,ANOS,64160,64027,43.4,-0.283333,1.14,7
Anost,ANOST,71550,71009,47.066667,4.1,2.45,14
Anould,ANOULD,88650,88009,48.183333,6.95,1.76,55
Anoux,ANOUX,54150,54018,49.266667,5.866667,1.79,52
Anoye,ANOYE,64350,64028,43.4,-0.133333,1.59,7
Anquetierville,ANQUETIERVILLE,76490,76022,49.533333,0.633333,1.07,70
Anrosey,ANROSEY,52500,52013,47.833333,5.666667,1.88,29
Ansacq,ANSACQ,60250,60016,49.35,2.366667,1.34,77
Ansac-sur-Vienne,ANSAC SUR VIENNE,16500,16016,46,0.65,2.26,79
Ansan,ANSAN,32270,32002,43.7,0.783333,1.11,59
Ansauville,ANSAUVILLE,54470,54019,48.816667,5.833333,1.36,52
Ansauvillers,ANSAUVILLERS,60120,60017,49.566667,2.4,1.13,77
Anse,ANSE,69480,69009,45.933333,4.716667,1.24,94
Anserville,ANSERVILLE,60540,60018,49.233333,2.216667,1.39,77
Ansignan,ANSIGNAN,66220,66006,42.766667,2.516667,1.71,48
Ansigny,ANSIGNY,73410,73016,45.8,5.933333,2.16,95
Ansost,ANSOST,65140,65013,43.433333,0.116667,2.08,61
Ansouis,ANSOUIS,84240,84002,43.733333,5.466667,1.84,88
Anstaing,ANSTAING,59152,59013,50.6,3.2,0.87,64
Antagnac,ANTAGNAC,47700,47010,44.35,0.016667,1.97,6
Anterrieux,ANTERRIEUX,15110,15007,44.833333,3.066667,1.54,9
Anteuil,ANTEUIL,25340,25018,47.383333,6.566667,1.23,32
Anthé,ANTHE,47370,47011,44.383333,0.95,2.09,6
Anthelupt,ANTHELUPT,54110,54020,48.616667,6.416667,1.25,52
Anthenay,ANTHENAY,51700,51012,49.15,3.733333,1.27,28
Antheny,ANTHENY,08260,08015,49.85,4.316667,1.62,26
Anthéor,ANTHEOR,83530,83904,43.433333,6.883333,2.55,87
Antheuil,ANTHEUIL,21360,21014,47.166667,4.75,1.57,12
Antheuil-Portes,ANTHEUIL PORTES,60162,60019,49.5,2.75,1,77
Anthien,ANTHIEN,58800,58008,47.3,3.733333,1.17,13
Anthon,ANTHON,38280,38011,45.8,5.166667,2.3,92
Antibes,ANTIBES,06600,06004,43.583333,7.116667,1.94,85
Antichan,ANTICHAN,65370,65014,43,0.583333,2.15,61
Antichan-de-Frontignes,ANTICHAN DE FRONTIGNES,31510,31009,42.966667,0.666667,1.62,58
Antignac,ANTIGNAC,15240,15008,45.366667,2.55,1.98,9
Antignac,ANTIGNAC,17240,17014,45.5,-0.466667,1.71,80
Antignac,ANTIGNAC,31110,31010,42.833333,0.6,2.22,58
Antigny,ANTIGNY,85120,85005,46.616667,-0.766667,1.41,75
Antigny,ANTIGNY,86310,86006,46.533333,0.85,1.95,82
Antigny-la-Ville,ANTIGNY LA VILLE,21230,21015,47.1,4.55,1.34,12
Antilly,ANTILLY,57640,57024,49.2,6.25,1.14,54
Antilly,ANTILLY,60620,60020,49.15,2.983333,2,77
Antin,ANTIN,65220,65015,43.333333,0.283333,1.38,61
Antisanti,ANTISANTI,20270,20016,42.166667,9.35,1.04,31
Antist,ANTIST,65200,65016,43.116667,0.133333,0.58,61
Antoigné,ANTOIGNE,72380,72900,48,0.133333,-1,74
Antoigny,ANTOIGNY,61410,61004,48.516667,-0.366667,1.26,68
Antoingt,ANTOINGT,63340,63005,45.5,3.183333,1.31,11
Antonaves,ANTONAVES,05300,05005,44.266667,5.8,2.15,84
Antonne-et-Trigonant,ANTONNE ET TRIGONANT,24420,24011,45.216667,0.833333,1.43,3
Antony,ANTONY,92160,92002,48.75,2.3,2.11,38
Antorpe,ANTORPE,25410,39012,47.183333,5.8,2.16,33
Antrain,ANTRAIN,35560,35004,48.45,-1.483333,1.41,18
Antran,ANTRAN,86100,86007,46.85,0.533333,1.53,82
Antras,ANTRAS,32360,32003,43.733333,0.45,1.51,59
Antras,ANTRAS,09800,09011,"42,881666","0,943055",,56
Antrenas,ANTRENAS,48100,48005,44.583333,3.266667,0.94,47
Antugnac,ANTUGNAC,11190,11010,42.95,2.233333,1.15,44
Antully,ANTULLY,71400,71010,46.9,4.416667,1.72,14
Anvéville,ANVEVILLE,76560,76023,49.7,0.733333,0.97,70
Anville,ANVILLE,16170,16017,45.833333,-0.1,1.12,79
Anvin,ANVIN,62134,62036,50.45,2.25,0.36,65
Any-Martin-Rieux,ANY MARTIN RIEUX,02500,02020,49.883333,4.2165,-1,76
Anzat-le-Luguet,ANZAT LE LUGUET,63420,63006,45.333333,3.05,2.25,11
Anzeling,ANZELING,57320,57025,49.266667,6.466667,1.26,54
Anzème,ANZEME,23000,23004,46.266667,1.866667,1.67,50
Anzex,ANZEX,47700,47012,44.283333,0.166667,1.35,6
Anzin,ANZIN,59410,59014,50.366667,3.5,0.65,64
Anzin-Saint-Aubin,ANZIN SAINT AUBIN,62223,62037,50.316667,2.75,1.34,65
Anzy-le-Duc,ANZY LE DUC,71110,71011,46.316667,4.066667,1.88,14
Aoste,AOSTE,38490,38012,45.583333,5.6,1.23,92
Aougny,AOUGNY,51170,51013,49.183333,3.733333,1.27,28
Aouste,AOUSTE,08290,08016,49.783333,4.316667,1.46,26
Aouste-sur-Sye,AOUSTE SUR SYE,26400,26011,44.716667,5.05,0.43,91
Aouze,AOUZE,88170,88010,48.383333,5.866667,1.39,55
Apach,APACH,57480,57026,49.45,6.366667,2.32,54
Apchat,APCHAT,63420,63007,45.383333,3.15,1.97,11
Apchon,APCHON,15400,15009,45.266667,2.7,1.37,9
Apinac,APINAC,42550,42006,45.383333,4,1.55,93
Appelle,APPELLE,81700,81015,43.583333,1.966667,1.24,62
Appenai-sous-Bellême,APPENAI SOUS BELLEME,61130,61005,48.35,0.566667,2.19,68
Appenwihr,APPENWIHR,68280,68008,48.016667,7.433333,1.24,2
Appeville,APPEVILLE,50500,50016,49.316667,-1.333333,1.15,67
Appeville-Annebault,APPEVILLE ANNEBAULT,27290,27018,49.316667,0.65,1.26,69
Appietto,APPIETTO,20167,20017,42,8.766667,1.87,30
Appilly,APPILLY,60400,60021,49.583333,3.116667,2.01,77
Appoigny,APPOIGNY,89380,89013,47.883333,3.533333,0.21,15
Apprieu,APPRIEU,38140,38013,45.4,5.5,1.27,92
Appy,APPY,09250,09012,42.8,1.733333,1.5,56
Apremont,APREMONT,01100,01011,46.208333,5.658333,1.46,89
Apremont,APREMONT,08250,08017,49.266667,5,2.27,26
Apremont,APREMONT,60300,60022,49.233333,2.516667,1.65,77
Apremont,APREMONT,70100,70024,47.4,5.55,1.96,34
Apremont,APREMONT,73190,73017,45.5,5.95,1.58,95
Apremont,APREMONT,85220,85006,46.75,-1.75,1.57,75
Apremont-la-Forêt,APREMONT LA FORET,55300,55012,48.85,5.633333,1.28,53
Aprey,APREY,52250,52014,47.766667,5.233333,1.49,29
Apt,APT,84400,84003,43.883333,5.4,1.27,88
Arabaux,ARABAUX,09000,09013,42.983333,1.633333,0.7,56
Arâches,ARACHES,74300,74014,46.033333,6.65,1.56,96
Aragnouet,ARAGNOUET,65170,65017,42.791667,0.225,-1,61
Aragon,ARAGON,11600,11011,43.3,2.316667,1.25,44
Aramits,ARAMITS,64570,64029,43.116667,-0.716667,1.76,7
Aramon,ARAMON,30390,30012,43.883333,4.683333,1.98,45
Aranc,ARANC,01110,01012,46,5.5,1.01,89
Arance,ARANCE,64300,64030,43.416667,-0.65,1.49,7
Arancou,ARANCOU,64270,64031,43.433333,-1.05,1.33,7
Arandas,ARANDAS,01230,01013,45.9,5.483333,1.11,89
Arandon,ARANDON,38510,38014,45.716667,5.433333,1.89,92
Araujuzon,ARAUJUZON,64190,64032,43.366667,-0.816667,0.77,7
Araules,ARAULES,43200,43007,45.083333,4.166667,1.59,10
Araux,ARAUX,64190,64033,43.35,-0.8,0.38,7
Arbanats,ARBANATS,33640,33007,44.666667,-0.4,1.8,4
Arbas,ARBAS,31160,31011,43,0.9,1.47,58
Arbecey,ARBECEY,70160,70025,47.733333,5.933333,2.3,34
Arbellara,ARBELLARA,20110,20018,41.683333,8.983333,2.16,30
Arbent,ARBENT,01100,01014,46.3,5.683333,1.39,89
Arbéost,ARBEOST,65560,65018,43,-0.283333,2.86,61
Arberats-Sillègue,ARBERATS SILLEGUE,64120,64034,43.35,-0.983333,0.92,7
Arbignieu,ARBIGNIEU,01300,01015,45.733333,5.65,2.11,89
Arbigny,ARBIGNY,01190,01016,46.466667,4.966667,2.31,89
Arbigny-sous-Varennes,ARBIGNY SOUS VARENNES,52500,52015,47.866667,5.616667,1.65,29
Arbin,ARBIN,73800,73018,45.5,6.066667,0.53,95
Arbis,ARBIS,33760,33008,44.666667,-0.25,1.39,4
Arblade-le-Bas,ARBLADE LE BAS,32720,32004,43.716667,-0.166667,2.11,59
Arblade-le-Haut,ARBLADE LE HAUT,32110,32005,43.75,-0.066667,1.77,59
Arbois,ARBOIS,39600,39013,46.9,5.766667,0.8,33
Arbon,ARBON,31160,31012,43,0.75,1.47,58
Arbonne,ARBONNE,64210,64035,43.433333,-1.55,2.59,7
Arboras,ARBORAS,34150,34011,43.716667,3.483333,1.48,46
Arbori,ARBORI,20160,20019,42.133333,8.8,1.71,30
Arbot,ARBOT,52160,52016,47.85,5.016667,1.33,29
Arbouans,ARBOUANS,25400,25020,47.483333,6.816667,1.69,32
Arboucave,ARBOUCAVE,40320,40005,43.616667,-0.433333,1.1,5
Arbouet-Sussaute,ARBOUET SUSSAUTE,64120,64036,43.366667,-1,0.97,7
Arbourse,ARBOURSE,58350,58009,47.25,3.233333,1.05,13
Arboussols,ARBOUSSOLS,66320,66007,42.666667,2.483333,1.31,48
Arbrissel,ARBRISSEL,35130,35005,47.933333,-1.3,1.34,18
Arbuissonnas,ARBUISSONNAS,69460,69011,46.05,4.633333,1.19,94
Arbus,ARBUS,64230,64037,43.333333,-0.5,1.31,7
Arbusigny,ARBUSIGNY,74930,74015,46.1,6.216667,1.61,96
Arcachon,ARCACHON,33120,33009,44.65889,-1.16355,-1,4
Arçais,ARCAIS,79210,79010,46.3,-0.683333,2.11,81
Arcambal,ARCAMBAL,46090,46007,44.45,1.516667,1.19,60
Arcangues,ARCANGUES,64200,64038,43.433333,-1.516667,2.49,7
Arçay,ARCAY,18340,18008,46.95,2.35,1.31,20
Arçay,ARCAY,86200,86008,46.966667,0.016667,1.65,82
Arceau,ARCEAU,21310,21016,47.383333,5.183333,1.97,12
Arcenant,ARCENANT,21700,21017,47.133333,4.85,1.45,12
Arc-en-Barrois,ARC EN BARROIS,52210,52017,47.95,5,1.14,29
Arcens,ARCENS,07310,07012,44.916667,4.333333,0.62,90
Arc-et-Senans,ARC ET SENANS,25610,25021,47.033333,5.766667,2.24,32
Arcey,ARCEY,21410,21018,47.283333,4.816667,0.56,12
Arcey,ARCEY,25750,25022,47.516667,6.666667,1.8,32
Archail,ARCHAIL,04420,04009,44.116667,6.333333,0.98,83
Archamps,ARCHAMPS,74160,74016,46.133333,6.133333,1.08,96
Archelange,ARCHELANGE,39290,39014,47.15,5.516667,2,33
Arches,ARCHES,15200,15010,45.3,2.333333,1.57,9
Arches,ARCHES,88380,88011,48.116667,6.533333,1.05,55
Archettes,ARCHETTES,88380,88012,48.116667,6.533333,1.05,55
Archiac,ARCHIAC,17520,17016,45.516667,-0.3,1.38,80
Archignac,ARCHIGNAC,24590,24012,45.016667,1.3,1.96,3
Archignat,ARCHIGNAT,03380,03005,46.383333,2.416667,2.31,8
Archigny,ARCHIGNY,86210,86009,46.666667,0.65,1.33,82
Archingeay,ARCHINGEAY,17380,17017,45.933333,-0.7,1.08,80
Archon,ARCHON,02360,02021,49.741667,4.116667,-1,76
Arcine,ARCINE,74270,74017,46.083333,5.9,1.79,96
Arcinges,ARCINGES,42460,42007,46.133333,4.283333,1.96,93
Arcins,ARCINS,33460,33010,45.066667,-0.716667,1.49,4
Arcis-le-Ponsart,ARCIS LE PONSART,51170,51014,49.233333,3.7,1.45,28
Arcis-sur-Aube,ARCIS SUR AUBE,10700,10006,48.533333,4.133333,1.61,27
Arcizac-Adour,ARCIZAC ADOUR,65360,65019,43.15,0.1,1.04,61
Arcizac-ez-Angles,ARCIZAC EZ ANGLES,65100,65020,43.1,0.016667,1.12,61
Arcizans-Avant,ARCIZANS AVANT,65400,65021,42.983333,-0.1,1.8,61
Arcizans-Dessus,ARCIZANS DESSUS,65400,65022,42.983333,-0.15,2.09,61
Arcomie,ARCOMIE,48200,48006,44.866667,3.233333,1.81,47
Arcomps,ARCOMPS,18200,18009,46.683333,2.433333,1.67,20
Arcon,ARCON,42370,42008,46,3.9,1.52,93
Arçon,ARCON,25300,25024,46.95,6.383333,1.75,32
Arconcey,ARCONCEY,21320,21020,47.216667,4.45,1.29,12
Arçonnay,ARCONNAY,72610,72006,48.4,0.083333,2.01,74
Arconsat,ARCONSAT,63250,63008,45.9,3.7,2.05,11
Arconville,ARCONVILLE,10200,10007,48.166667,4.716667,1.95,27
Arc-sous-Cicon,ARC SOUS CICON,25520,25025,47.05,6.383333,1.89,32
Arc-sous-Montenot,ARC SOUS MONTENOT,25270,25026,46.916667,6,1.96,32
Arc-sur-Tille,ARC SUR TILLE,21560,21021,47.333333,5.183333,1.37,12
Arcueil,ARCUEIL,94110,94003,48.8,2.333333,1.92,41
Arcy-Sainte-Restitue,ARCY SAINTE RESTITUE,02130,02022,49.25,3.466667,1.33,76
Arcy-sur-Cure,ARCY SUR CURE,89270,89015,47.6,3.75,1.26,15
Ardelles,ARDELLES,28170,28008,48.55,1.166667,1.43,21
Ardelu,ARDELU,28700,28009,48.35,1.916667,2.33,21
Ardenais,ARDENAIS,18170,18010,46.65,2.366667,-1,20
Ardenay-sur-Mérize,ARDENAY SUR MERIZE,72370,72007,48,0.416667,1.65,74
Ardengost,ARDENGOST,65240,65023,42.933333,0.4,1.42,61
Ardentes,ARDENTES,36120,36005,46.75,1.833333,0.89,22
Ardeuil-et-Montfauxelles,ARDEUIL ET MONTFAUXELLES,08400,08018,49.266667,4.716667,2.27,26
Ardevon,ARDEVON,50170,50017,48.6,-1.466667,1.68,67
Ardiège,ARDIEGE,31210,31013,43.066667,0.65,1.54,58
Ardilleux,ARDILLEUX,79110,79011,46.1,-0.033333,1.55,81
Ardillières,ARDILLIERES,17290,17018,46.05,-0.883333,1.1,80
Ardin,ARDIN,79160,79012,46.483333,-0.55,1.36,81
Ardizas,ARDIZAS,32430,32007,43.716667,1,1.85,59
Ardoix,ARDOIX,07290,07013,45.183333,4.733333,1.81,90
Ardon,ARDON,39300,39015,46.766667,5.883333,1.34,33
Ardon,ARDON,45160,45006,47.783333,1.866667,1.44,25
Ardouval,ARDOUVAL,76680,76024,49.75,1.266667,1.23,70
Ardres,ARDRES,62610,62038,50.85,1.983333,2.26,65
Arêches,ARECHES,73270,73922,45.683333,6.566667,1.27,95
Aregno,AREGNO,20220,20020,42.583333,8.9,1.35,31
Areines,AREINES,41100,41003,47.8,1.1,0.82,24
Aren,AREN,64400,64039,43.266667,-0.683333,1.2,7
Arengosse,ARENGOSSE,40110,40006,44,-0.783333,1.04,5
Arenthon,ARENTHON,74800,74018,46.1,6.333333,1.06,96
Arès,ARES,33740,33011,44.7671,-1.1394,-1,4
Aresches,ARESCHES,39110,39586,46.9,5.916667,1.55,33
Aressy,ARESSY,64320,64041,43.283333,-0.316667,1.05,7
Arette,ARETTE,64570,64040,43.1,-0.716667,1.9,7
Arfeuille-Châtain,ARFEUILLE CHATAIN,23700,23005,46.066667,2.433333,1.69,50
Arfons,ARFONS,81110,81016,43.433333,2.166667,2.11,62
Argagnon,ARGAGNON,64300,64042,43.45,-0.683333,1.03,7
Arganchy,ARGANCHY,14400,14019,49.233333,-0.75,1.2,66
Argançon,ARGANCON,10140,10008,48.25,4.6,1.53,27
Argancy,ARGANCY,57640,57028,49.2,6.2,1.68,54
Argein,ARGEIN,09800,09014,42.933333,1,2.35,56
Argelès,ARGELES,65200,65024,43.083333,0.2,0.9,61
Argelès-Gazost,ARGELES GAZOST,65400,65025,43.016667,-0.1,1.8,61
Argelès-sur-Mer,ARGELES SUR MER,66700,66008,42.55,3.016667,1.83,48
Argeliers,ARGELIERS,11120,11012,43.316667,2.916667,2.23,44
Argelliers,ARGELLIERS,34380,34012,43.7,3.683333,1.19,46
Argelos,ARGELOS,40700,40007,43.583333,-0.633333,1.29,5
Argelos,ARGELOS,64450,64043,43.45,-0.35,1.03,7
Argelouse,ARGELOUSE,40430,40008,44.36596,-0.64616,-1,5
Argences,ARGENCES,14370,14020,49.133333,-0.166667,0.53,66
Argens,ARGENS,04170,04010,44.05,6.516667,1.44,83
Argentan,ARGENTAN,61200,61006,48.75,-0.016667,0.87,68
Argentat,ARGENTAT,19400,19010,45.1,1.933333,1.28,49
Argentenay,ARGENTENAY,89160,89016,47.816667,4.116667,1.88,15
Argenteuil,ARGENTEUIL,95100,95018,48.95,2.25,2.51,42
Argenteuil-sur-Armançon,ARGENTEUIL SUR ARMANCON,89160,89017,47.75,4.1,1.82,15
Argentière,ARGENTIERE,74400,74920,45.983333,6.933333,2.83,96
Argentières,ARGENTIERES,77390,77007,48.65,2.866667,1.08,40
Argentine,ARGENTINE,73220,73019,45.5,6.316667,0.6,95
Argentolles,ARGENTOLLES,52330,52018,48.25,4.883333,1.67,29
Argenton,ARGENTON,47250,47013,44.383333,0.1,1.61,6
Argenton-Château,ARGENTON CHATEAU,79150,79013,46.983333,-0.45,1.71,81
Argenton-l'Église,ARGENTON L EGLISE,79290,79014,47.05,-0.266667,1.96,81
Argenton-Notre-Dame,ARGENTON NOTRE DAME,53290,53006,47.783333,-0.583333,1.83,73
Argenton-sur-Creuse,ARGENTON SUR CREUSE,36200,36006,46.583333,1.516667,0.92,22
Argentré,ARGENTRE,53210,53007,48.083333,-0.65,0.94,73
Argentré-du-Plessis,ARGENTRE DU PLESSIS,35370,35006,48.066667,-1.15,1.9,18
Argent-sur-Sauldre,ARGENT SUR SAULDRE,18410,18011,47.55,2.45,2.52,20
Argenvières,ARGENVIERES,18140,18012,47.133333,3,2.08,20
Argenvilliers,ARGENVILLIERS,28420,28010,48.266667,0.95,1.95,21
Argers,ARGERS,51800,51015,49.066667,4.85,1.87,28
Arget,ARGET,64410,64044,43.55,-0.533333,1.86,7
Argiésans,ARGIESANS,90800,90004,47.6,6.816667,1.8,35
Argillières,ARGILLIERES,70600,70027,47.666667,5.633333,1.66,34
Argilliers,ARGILLIERS,30210,30013,43.983333,4.5,1.24,45
Argilly,ARGILLY,21700,21022,47.066667,5,1.51,12
Argis,ARGIS,01230,01017,45.933333,5.483333,0.9,89
Argiusta-Moriccio,ARGIUSTA MORICCIO,20140,20021,41.8,9.016667,1.7,30
Argoeuves,ARGOEUVES,80730,80024,49.916667,2.233333,0.75,78
Argol,ARGOL,29560,29001,48.25,-4.316667,0.73,17
Argouges,ARGOUGES,50240,50018,48.5,-1.4,2.02,67
Argoules,ARGOULES,80120,80025,50.35,1.833333,-1,78
Argueil,ARGUEIL,76780,76025,49.533333,1.516667,1.59,70
Arguel,ARGUEL,25720,25027,47.2,6,1.37,32
Arguel,ARGUEL,80140,80026,49.866667,1.8,1.32,78
Arguenos,ARGUENOS,31160,31014,42.966667,0.716667,1.62,58
Argut-Dessous,ARGUT DESSOUS,31440,31015,42.883333,0.716667,2,58
Argut-Dessus,ARGUT DESSUS,31440,31016,42.9,0.733333,1.92,58
Argy,ARGY,36500,36007,46.933333,1.433333,0.79,22
Arhansus,ARHANSUS,64120,64045,43.25,-1.033333,1.07,7
Aries-Espénan,ARIES ESPENAN,65230,65026,43.283333,0.533333,1.87,61
Arifat,ARIFAT,81360,81017,43.766667,2.333333,1.03,62
Arignac,ARIGNAC,09400,09015,42.866667,1.6,0.9,56
Arinthod,ARINTHOD,39240,39016,46.383333,5.566667,1.69,33
Arith,ARITH,73340,73020,45.716667,6.083333,1.47,95
Arjuzanx,ARJUZANX,40110,40009,44.016667,-0.85,1.13,5
Arlanc,ARLANC,63220,63010,45.416667,3.733333,2.18,11
Arlay,ARLAY,39140,39017,46.766667,5.533333,1.92,33
Arlebosc,ARLEBOSC,07410,07014,45.033333,4.65,1.17,90
Arlempdes,ARLEMPDES,43490,43008,44.866667,3.916667,2.09,10
Arles,ARLES,13200,13004,43.666667,4.633333,2.57,86
Arles-sur-Tech,ARLES SUR TECH,66150,66009,42.45,2.633333,1.67,48
Arlet,ARLET,43380,43009,45.116667,3.433333,1.26,10
Arleuf,ARLEUF,58430,58010,47.05,4.016667,2.29,13
Arleux,ARLEUX,59151,59015,50.283333,3.1,0.63,64
Arleux-en-Gohelle,ARLEUX EN GOHELLE,62580,62039,50.366667,2.866667,1.52,65
Arlos,ARLOS,31440,31017,42.9,0.7,1.92,58
Armaillé,ARMAILLE,49420,49010,47.716667,-1.133333,1.9,72
Armancourt,ARMANCOURT,60880,60023,49.383333,2.766667,1,77
Armaucourt,ARMAUCOURT,54760,54021,48.816667,6.3,0.67,52
Armbouts-Cappel,ARMBOUTS CAPPEL,59380,59016,50.983333,2.35,2.41,64
Armeau,ARMEAU,89500,89018,48.05,3.316667,0.99,15
Armendarits,ARMENDARITS,64640,64046,43.3,-1.166667,1.46,7
Armenteule,ARMENTEULE,65510,65027,42.816667,0.416667,2.24,61
Armentières,ARMENTIERES,59280,59017,50.683333,2.883333,1.11,64
Armentières-en-Brie,ARMENTIERES EN BRIE,77440,77008,48.983333,3.016667,1.49,40
Armentières-sur-Avre,ARMENTIERES SUR AVRE,27820,27019,48.67957,0.7847,-1,69
Armentières-sur-Ourcq,ARMENTIERES SUR OURCQ,02210,02023,49.183333,3.383333,1.5,76
Armentieux,ARMENTIEUX,32230,32008,43.516667,0.1,1.21,59
Armes,ARMES,58500,58011,47.466667,3.55,1.73,13
Armillac,ARMILLAC,47800,47014,44.55,0.383333,1.04,6
Armissan,ARMISSAN,11110,11014,43.183333,3.1,2.92,44
Armix,ARMIX,01510,01019,45.85,5.583333,1.41,89
Armous-et-Cau,ARMOUS ET CAU,32230,32009,43.566667,0.166667,0.98,59
Armoy,ARMOY,74200,74020,46.35,6.516667,1.99,96
Arnac,ARNAC,15150,15011,45.05,2.233333,1.47,9
Arnac-la-Poste,ARNAC LA POSTE,87160,87003,46.266667,1.383333,1.98,51
Arnac-Pompadour,ARNAC POMPADOUR,19230,19011,45.416667,1.366667,1.78,49
Arnac-sur-Dourdou,ARNAC SUR DOURDOU,12360,12009,43.733333,2.933333,2.55,57
Arnage,ARNAGE,72230,72008,47.933333,0.183333,0.64,74
Arnancourt,ARNANCOURT,52110,52019,48.35,4.916667,1.52,29
Arnas,ARNAS,69400,69013,46.016667,4.7,1.49,94
Arnaud-Guilhem,ARNAUD GUILHEM,31360,31018,43.133333,0.9,0.87,58
Arnave,ARNAVE,09400,09016,42.85,1.65,1.61,56
Arnaville,ARNAVILLE,54530,54022,49,6.033333,1.39,52
Arnay-le-Duc,ARNAY LE DUC,21230,21023,47.133333,4.483333,1.18,12
Arnayon,ARNAYON,26470,26012,44.483333,5.316667,1,91
Arnay-sous-Vitteaux,ARNAY SOUS VITTEAUX,21350,21024,47.45,4.5,1.16,12
Arné,ARNE,65670,65028,43.183333,0.516667,1.77,61
Arnéguy,ARNEGUY,64220,64047,43.116667,-1.283333,1.81,7
Arnèke,ARNEKE,59285,59018,50.833333,2.416667,2.1,64
Arnicourt,ARNICOURT,08300,08021,49.55,4.35,1.32,26
Arnières-sur-Iton,ARNIERES SUR ITON,27180,27020,48.983333,1.116667,0.99,69
Arnoncourt-sur-Apance,ARNONCOURT SUR APANCE,52400,52020,48,5.7,2.03,29
Arnos,ARNOS,64370,64048,43.45,-0.533333,1.03,7
Arnouville-lès-Gonesse,ARNOUVILLE LES GONESSE,95400,95019,48.983333,2.416667,1.84,42
Arnouville-lès-Mantes,ARNOUVILLE LES MANTES,78790,78020,48.9,1.733333,1.45,43
Aroffe,AROFFE,88170,88013,48.4,5.9,1.54,55
Aromas,AROMAS,39240,39018,46.3,5.483333,2.09,33
Aron,ARON,53440,53008,48.3,-0.55,0.83,73
Aroz,AROZ,70360,70028,47.616667,6,1,34
Arpajon,ARPAJON,91290,91021,48.583333,2.25,0.3,37
Arpajon-sur-Cère,ARPAJON SUR CERE,15130,15012,44.9,2.466667,0.87,9
Arpavon,ARPAVON,26110,26013,44.366667,5.266667,1.28,91
Arpenans,ARPENANS,70200,70029,47.616667,6.4,1.73,34
Arpheuilles,ARPHEUILLES,18200,18013,46.783333,2.566667,1.77,20
Arpheuilles,ARPHEUILLES,36700,36008,46.9,1.266667,1.41,22
Arpheuilles-Saint-Priest,ARPHEUILLES SAINT PRIEST,03420,03007,46.233333,2.683333,1.5,8
Arphy,ARPHY,30120,30015,44.033333,3.6,2.41,45
Arquenay,ARQUENAY,53170,53009,47.983333,-0.566667,0.8,73
Arques,ARQUES,11190,11015,42.95,2.383333,1.15,44
Arques,ARQUES,12290,12010,44.316667,2.8,0.99,57
Arques,ARQUES,62510,62040,50.733333,2.283333,1.58,65
Arques-la-Bataille,ARQUES LA BATAILLE,76880,76026,49.883333,1.133333,1.57,70
Arquèves,ARQUEVES,80560,80028,50.066667,2.483333,0.95,78
Arquian,ARQUIAN,58310,58012,47.55,2.983333,2.17,13
Arrabloy,ARRABLOY,45500,45007,47.7,2.716667,1.96,25
Arracourt,ARRACOURT,54370,54023,48.733333,6.533333,1.33,52
Arradon,ARRADON,56610,56003,47.633333,-2.833333,1.09,19
Arraincourt,ARRAINCOURT,57380,57027,48.966667,6.533333,1.24,54
Arrancourt,ARRANCOURT,91690,91022,48.333333,2.166667,2.25,37
Arrancy,ARRANCY,02860,02024,49.483333,3.75,1.87,76
Arrans,ARRANS,21500,21025,47.7,4.316667,1.68,12
Arras,ARRAS,62000,62041,50.283333,2.783333,1.29,65
Arras-en-Lavedan,ARRAS EN LAVEDAN,65400,65029,42.983333,-0.133333,1.99,61
Arras-sur-Rhône,ARRAS SUR RHONE,07370,07015,45.133333,4.8,1.73,90
Arrast-Larrebieu,ARRAST LARREBIEU,64130,64050,43.3,-0.85,1.29,7
Arraute-Charritte,ARRAUTE CHARRITTE,64120,64051,43.4,-1.1,1.39,7
Arraye-et-Han,ARRAYE ET HAN,54760,54024,48.833333,6.3,0.88,52
Arre,ARRE,30120,30016,43.95,3.5,2.82,45
Arreau,ARREAU,65240,65031,42.9,0.366667,1.66,61
Arrelles,ARRELLES,10340,10009,48.05,4.283333,1.77,27
Arrembécourt,ARREMBECOURT,10330,10010,48.55,4.6,1.72,27
Arrènes,ARRENES,23210,23006,46.066667,1.566667,1.91,50
Arrentès-de-Corcieux,ARRENTES DE CORCIEUX,88430,88014,48.133333,6.866667,1.53,55
Arrentières,ARRENTIERES,10200,10011,48.266667,4.75,2.07,27
Arrest,ARREST,80820,80029,50.133333,1.616667,1.8,78
Arreux,ARREUX,08090,08022,49.833333,4.65,1.43,26
Arriance,ARRIANCE,57580,57029,49.016667,6.5,1.53,54
Arricau-Bordes,ARRICAU BORDES,64350,64052,43.5,-0.133333,1.59,7
Arrien,ARRIEN,64420,64053,43.316667,-0.15,1.54,7
Arrien-en-Bethmale,ARRIEN EN BETHMALE,09800,09017,42.9,1.05,2.13,56
Arrigas,ARRIGAS,30770,30017,43.983333,3.483333,2.89,45
Arrigny,ARRIGNY,51290,51016,48.616667,4.716667,1.86,28
Arro,ARRO,20151,20022,42.083333,8.816667,1.63,30
Arrodets,ARRODETS,65130,65034,43.033333,0.283333,1.07,61
Arrodets-ez-Angles,ARRODETS EZ ANGLES,65100,65033,43.066667,0.033333,1.1,61
Arromanches-les-Bains,ARROMANCHES LES BAINS,14117,14021,49.333333,-0.616667,1.67,66
Arronnes,ARRONNES,03250,03008,46.066667,3.566667,1.99,8
Arronville,ARRONVILLE,95810,95023,49.183333,2.1,2.15,42
Arros-d'Oloron,ARROS D OLORON,64660,64055,43.15,-0.6,1.48,7
Arrosés,ARROSES,64350,64056,43.55,-0.116667,1.86,7
Arrou,ARROU,28290,28012,48.1,1.116667,1.74,21
Arrouède,ARROUEDE,32140,32010,43.35,0.583333,2.1,59
Arrout,ARROUT,09800,09018,42.95,1.033333,2.2,56
Arry,ARRY,57680,57030,49,6.066667,1.71,54
Arry,ARRY,80120,80030,50.283333,1.716667,2.55,78
Ars,ARS,16130,16018,45.65,-0.383333,2.4,79
Ars,ARS,23480,23007,46,2.066667,0.88,50
Arsac,ARSAC,33460,33012,45,-0.683333,1.35,4
Arsac-en-Velay,ARSAC EN VELAY,43700,43010,44.983333,3.95,1.48,10
Arsans,ARSANS,70100,70030,47.366667,5.633333,1.91,34
Ars-en-Ré,ARS EN RE,17590,17019,46.208333,-1.516667,-1,80
Ars-Laquenexy,ARS LAQUENEXY,57530,57031,49.083333,6.283333,1.39,54
Ars-les-Favets,ARS LES FAVETS,63700,63011,46.2,2.75,2.65,11
Arsonval,ARSONVAL,10200,10012,48.266667,4.65,1.71,27
Ars-sur-Formans,ARS SUR FORMANS,01480,01021,45.983333,4.816667,1.8,89
Ars-sur-Moselle,ARS SUR MOSELLE,57130,57032,49.083333,6.066667,1.71,54
Arsure-Arsurette,ARSURE ARSURETTE,39250,39020,46.716667,6.083333,2.59,33
Arsy,ARSY,60190,60024,49.4,2.683333,1.1,77
Artagnan,ARTAGNAN,65500,65035,43.4,0.083333,1.85,61
Artaise-le-Vivier,ARTAISE LE VIVIER,08390,08023,49.583333,4.9,1.41,26
Artaix,ARTAIX,71110,71012,46.25,4,2.1,14
Artalens-Souin,ARTALENS SOUIN,65400,65036,42.966667,-0.05,1.51,61
Artannes-sur-Indre,ARTANNES SUR INDRE,37260,37006,47.266667,0.6,0.68,23
Artannes-sur-Thouet,ARTANNES SUR THOUET,49260,49011,47.2,-0.083333,1.5,72
Artas,ARTAS,38440,38015,45.533333,5.166667,1.15,92
Artassenx,ARTASSENX,40090,40012,43.85,-0.383333,1.18,5
Artemare,ARTEMARE,01510,01022,45.866667,5.7,1.31,89
Artemps,ARTEMPS,02480,02025,49.766667,3.183333,1.5,76
Artenay,ARTENAY,45410,45008,48.083333,1.883333,1.39,25
Arthaz-Pont-Notre-Dame,ARTHAZ PONT NOTRE DAME,74380,74021,46.15,6.283333,1.34,96
Arthel,ARTHEL,58700,58013,47.233333,3.416667,0.87,13
Arthémonay,ARTHEMONAY,26260,26014,45.133333,5.05,1.67,91
Arthenac,ARTHENAC,17520,17020,45.516667,-0.316667,1.31,80
Arthenas,ARTHENAS,39270,39021,46.583333,5.533333,1.4,33
Arthès,ARTHES,81160,81018,43.95,2.2,1,62
Arthez-d'Armagnac,ARTHEZ D ARMAGNAC,40190,40013,43.9,-0.25,1.62,5
Arthez-d'Asson,ARTHEZ D ASSON,64800,64058,43.083333,-0.25,2.04,7
Arthez-de-Béarn,ARTHEZ DE BEARN,64370,64057,43.466667,-0.6,1.17,7
Arthezé,ARTHEZE,72270,72009,47.783333,-0.116667,1.51,74
Arthies,ARTHIES,95420,95024,49.1,1.783333,1.74,42
Arthon,ARTHON,36330,36009,46.683333,1.7,0.64,22
Arthon-en-Retz,ARTHON EN RETZ,44320,44005,47.116667,-1.95,1.32,71
Arthonnay,ARTHONNAY,89740,89019,47.933333,4.216667,2.24,15
Arthun,ARTHUN,42130,42009,45.766667,4.033333,0.84,93
Artigat,ARTIGAT,09130,09019,43.133333,1.433333,1.49,56
Artignosc-sur-Verdon,ARTIGNOSC SUR VERDON,83630,83005,43.7,6.1,1.69,87
Artigue,ARTIGUE,31110,31019,42.833333,0.616667,2.22,58
Artigueloutan,ARTIGUELOUTAN,64420,64059,43.266667,-0.25,1.78,7
Artiguelouve,ARTIGUELOUVE,64230,64060,43.316667,-0.466667,1.28,7
Artiguemy,ARTIGUEMY,65130,65037,43.133333,0.25,1.47,61
Artigues,ARTIGUES,11140,11017,42.8,2.216667,2.18,44
Artigues,ARTIGUES,83560,83006,43.6,5.8,1.65,87
Artigues,ARTIGUES,09460,09020,"42,717777","2,069166",,56
Artigues-près-Bordeaux,ARTIGUES PRES BORDEAUX,33370,33013,44.85,-0.516667,1.82,4
Artins,ARTINS,41800,41004,47.75,0.733333,2.32,24
Artix,ARTIX,09120,09021,43.066667,1.566667,1.05,56
Artix,ARTIX,64170,64061,43.4,-0.55,0.61,7
Artolsheim,ARTOLSHEIM,67390,67011,48.216667,7.566667,2.45,1
Artonges,ARTONGES,02330,02026,48.933333,3.55,2.53,76
Artonne,ARTONNE,63460,63012,46,3.133333,1.52,11
Artres,ARTRES,59269,59019,50.3,3.55,0.78,64
Art-sur-Meurthe,ART SUR MEURTHE,54510,54025,48.65,6.266667,1,52
Artzenheim,ARTZENHEIM,68320,68009,48.116667,7.533333,2.03,2
Arudy,ARUDY,64260,64062,43.116667,-0.433333,1.76,7
Arue,ARUE,40120,40014,44.066667,-0.35,1.41,5
Arvant,ARVANT,43360,43901,45.366667,3.316667,1.74,10
Arvert,ARVERT,17530,17021,45.733333,-1.133333,1.89,80
Arveyres,ARVEYRES,33500,33015,44.883333,-0.283333,1.94,4
Arvieu,ARVIEU,12120,12011,44.183333,2.666667,1.96,57
Arvieux,ARVIEUX,05350,05007,44.766667,6.733333,2.03,84
Arvigna,ARVIGNA,09100,09022,43.066667,1.733333,1.68,56
Arvillard,ARVILLARD,73110,73021,45.45,6.116667,0.76,95
Arville,ARVILLE,41170,41005,48.066667,0.95,2.35,24
Arville,ARVILLE,77890,77009,48.183333,2.55,2.19,40
Arvillers,ARVILLERS,80910,80031,49.733333,2.65,1.51,78
Arx,ARX,40310,40015,44.116667,0.066667,2.67,5
Arzacq-Arraziguet,ARZACQ ARRAZIGUET,64410,64063,43.533333,-0.416667,1.72,7
Arzal,ARZAL,56190,56004,47.516667,-2.366667,1.8,19
Arzano,ARZANO,29300,29002,47.9,-3.433333,2.63,17
Arzay,ARZAY,38260,38016,45.433333,5.166667,1.15,92
Arzembouy,ARZEMBOUY,58700,58014,47.25,3.366667,0.57,13
Arzenc-d'Apcher,ARZENC D APCHER,48310,48007,44.85,3.116667,1.72,47
Arzenc-de-Randon,ARZENC DE RANDON,48170,48008,44.65,3.616667,0.93,47
Arzens,ARZENS,11290,11018,43.2,2.216667,0.57,44
Arzon,ARZON,56640,56005,47.55,-2.9,1.6,19
Arzviller,ARZVILLER,57400,57033,48.716667,7.166667,1.93,54
Ascain,ASCAIN,64310,64065,43.35,-1.616667,2.79,7
Ascarat,ASCARAT,64220,64066,43.166667,-1.25,1.71,7
Aschbach,ASCHBACH,67250,67012,48.933333,7.983333,2.24,1
Aschères-le-Marché,ASCHERES LE MARCHE,45170,45009,48.1,2,1.02,25
Asco,ASCO,20276,20023,42.45,9.033333,0.83,31
Ascou,ASCOU,09110,09023,42.716667,1.866667,2.25,56
Ascoux,ASCOUX,45300,45010,48.116667,2.25,0.99,25
Ascros,ASCROS,06260,06005,43.916667,7.016667,1.33,85
Asfeld,ASFELD,08190,08024,49.466667,4.116667,2.32,26
Aslonnes,ASLONNES,86340,86010,46.4,0.333333,1.68,82
Asnan,ASNAN,58420,58015,47.316667,3.55,1.16,13
Asnelles,ASNELLES,14960,14022,49.333333,-0.583333,1.67,66
Asnières,ASNIERES,27260,27021,49.2,0.383333,2.03,69
Asnières-en-Bessin,ASNIERES EN BESSIN,14710,14023,49.366667,-0.933333,1.93,66
Asnières-en-Montagne,ASNIERES EN MONTAGNE,21500,21026,47.716667,4.283333,1.8,12
Asnières-en-Poitou,ASNIERES EN POITOU,79170,79015,46.1,-0.183333,1.55,81
Asnières-la-Giraud,ASNIERES LA GIRAUD,17400,17022,45.883333,-0.5,0.84,80
Asnières-lès-Dijon,ASNIERES LES DIJON,21380,21027,47.383333,5.033333,0.86,12
Asnières-sous-Bois,ASNIERES SOUS BOIS,89660,89020,47.483333,3.65,1.84,15
Asnières-sur-Blour,ASNIERES SUR BLOUR,86430,86011,46.166667,0.8,2.05,82
Asnières-sur-Nouère,ASNIERES SUR NOUERE,16290,16019,45.716667,0.05,1.36,79
Asnières-sur-Oise,ASNIERES SUR OISE,95270,95026,49.133333,2.35,1.34,42
Asnières-sur-Saône,ASNIERES SUR SAONE,01570,01023,46.383333,4.883333,1.81,89
Asnières-sur-Vègre,ASNIERES SUR VEGRE,72430,72010,47.883333,-0.233333,2.01,74
Asnois,ASNOIS,58190,58016,47.4,3.6,1.37,13
Asnois,ASNOIS,86250,86012,46.116667,0.416667,2.28,82
Aspach,ASPACH,57790,57034,48.65,6.966667,2.31,54
Aspach,ASPACH,68130,68010,47.65,7.233333,1.88,2
Aspach-le-Bas,ASPACH LE BAS,68700,68011,47.766667,7.15,1.14,2
Aspach-le-Haut,ASPACH LE HAUT,68700,68012,47.783333,7.133333,1.12,2
Aspères,ASPERES,30250,30018,43.8,4.05,1.63,45
Asperjoc,ASPERJOC,07600,07016,44.683333,4.35,0.5,90
Aspet,ASPET,31160,31020,43.016667,0.8,1.4,58
Aspin-Aure,ASPIN AURE,65240,65039,42.933333,0.35,1.42,61
Aspin-en-Lavedan,ASPIN EN LAVEDAN,65100,65040,43.083333,-0.05,1.51,61
Aspiran,ASPIRAN,34800,34013,43.566667,3.433333,1.05,46
Aspremont,ASPREMONT,06790,06006,43.783333,7.25,0.82,85
Aspres-lès-Corps,ASPRES LES CORPS,05800,05009,44.8,5.983333,1.55,84
Aspres-sur-Buëch,ASPRES SUR BUECH,05140,05010,44.516667,5.75,1.36,84
Aspret-Sarrat,ASPRET SARRAT,31800,31021,43.066667,0.716667,1.22,58
Asprières,ASPRIERES,12700,12012,"44,546666","2,145555",,57
Asque,ASQUE,65130,65041,43.05,0.25,0.96,61
Asques,ASQUES,33240,33016,44.95,-0.416667,1.07,4
Asques,ASQUES,82120,82004,44,0.916667,1.23,63
Asquins,ASQUINS,89450,89021,47.483333,3.75,1.84,15
Assac,ASSAC,81340,81019,43.983333,2.433333,1.52,62
Assainvillers,ASSAINVILLERS,80500,80032,49.616667,2.6,2.37,78
Assas,ASSAS,34820,34014,43.7,3.883333,1.48,46
Assat,ASSAT,64510,64067,43.25,-0.3,1.09,7
Assé-le-Bérenger,ASSE LE BERENGER,53600,53010,48.15,-0.316667,1.54,73
Assé-le-Boisne,ASSE LE BOISNE,72130,72011,48.333333,-,1.64,74
Assé-le-Riboul,ASSE LE RIBOUL,72170,72012,48.2,0.083333,0.9,74
Assenay,ASSENAY,10320,10013,48.183333,4.066667,1.35,27
Assencières,ASSENCIERES,10220,10014,48.35,4.2,1.49,27
Assenoncourt,ASSENONCOURT,57810,57035,48.766667,6.8,1.64,54
Assérac,ASSERAC,44410,44006,47.433333,-2.383333,2.26,71
Assevent,ASSEVENT,59600,59021,50.283333,4.016667,1.96,64
Assevillers,ASSEVILLERS,80200,80033,49.9,2.833333,1.4,78
Assier,ASSIER,46320,46009,44.666667,1.883333,1.07,60
Assieu,ASSIEU,38150,38017,45.416667,4.866667,2.26,92
Assignan,ASSIGNAN,34360,34015,43.4,2.883333,1.76,46
Assigny,ASSIGNY,18260,18014,47.433333,2.75,1.96,20
Assigny,ASSIGNY,76630,76027,49.983333,1.3,2.32,70
Assis-sur-Serre,ASSIS SUR SERRE,02270,02027,49.683333,3.566667,0.56,76
Asson,ASSON,64800,64068,43.15,-0.25,1.48,7
Asswiller,ASSWILLER,67320,67013,48.883333,7.216667,1.69,1
Astaffort,ASTAFFORT,47220,47015,44.066667,0.666667,2.13,6
Astaillac,ASTAILLAC,19120,19012,44.95,1.833333,2.18,49
Asté,ASTE,65200,65042,43.033333,0.166667,1.02,61
Aste-Béon,ASTE BEON,64260,64069,43.016667,-0.416667,2.6,7
Astet,ASTET,07330,07018,44.683333,4.05,1.98,90
Astillé,ASTILLE,53230,53011,47.966667,-0.85,1.08,73
Astis,ASTIS,64450,64070,43.433333,-0.333333,1,7
Astoin,ASTOIN,04250,04011,44.366667,6.166667,1.79,83
Aston,ASTON,09310,09024,42.766667,1.666667,1.8,56
Astugue,ASTUGUE,65200,65043,43.1,0.066667,1.48,61
Athée,ATHEE,53400,53012,47.883333,-0.95,1.32,73
Athée,ATHEE,21130,21028,47.233333,5.366667,2.01,12
Athée-sur-Cher,ATHEE SUR CHER,37270,37008,47.316667,0.916667,1.54,23
Athienville,ATHIENVILLE,54370,54026,48.716667,6.5,1.21,52
Athies,ATHIES,62223,62042,50.3,2.833333,1.43,65
Athies,ATHIES,80200,80034,49.85,2.983333,1.79,78
Athies-sous-Laon,ATHIES SOUS LAON,02840,02028,49.566667,3.683333,1.27,76
Athis,ATHIS,51150,51018,49.016667,4.133333,0.6,28
Athis-Mons,ATHIS MONS,91200,91027,48.716667,2.4,1.61,37
Athos-Aspis,ATHOS ASPIS,64390,64071,43.4,-0.966667,1,7
Athose,ATHOSE,25580,25028,47.083333,6.316667,0.92,32
Attainville,ATTAINVILLE,95570,95028,49.05,2.35,0.96,42
Attancourt,ATTANCOURT,52130,52021,48.533333,4.933333,1.89,29
Attenschwiller,ATTENSCHWILLER,68220,68013,47.566667,7.466667,1.51,2
Attiches,ATTICHES,59551,59022,50.516667,3.05,1,64
Attichy,ATTICHY,60350,60025,49.416667,3.05,1.82,77
Attignat,ATTIGNAT,01340,01024,46.283333,5.166667,1.21,89
Attignat-Oncin,ATTIGNAT ONCIN,73610,73022,45.5,5.783333,1.55,95
Attignéville,ATTIGNEVILLE,88300,88015,48.383333,5.816667,1.39,55
Attigny,ATTIGNY,08130,08025,49.483333,4.583333,0.85,26
Attigny,ATTIGNY,88260,88016,48.066667,6.033333,1.5,55
Attilloncourt,ATTILLONCOURT,57170,57036,48.783333,6.383333,1.87,54
Attilly,ATTILLY,02490,02029,49.85,3.166667,1.58,76
Attin,ATTIN,62170,62044,50.483333,1.75,1.66,65
Atton,ATTON,54700,54027,48.9,6.083333,0.42,52
Attray,ATTRAY,45170,45011,48.116667,2.116667,1.09,25
Attricourt,ATTRICOURT,70100,70032,47.483333,5.4,2.5,34
Atur,ATUR,24750,24013,45.15,0.75,0.67,3
Aubagnan,AUBAGNAN,40700,40016,43.666667,-0.5,1.62,5
Aubagne,AUBAGNE,13400,13005,43.283333,5.566667,1.55,86
Aubaine,AUBAINE,21360,21030,47.133333,4.716667,1.18,12
Aubais,AUBAIS,30250,30019,43.75,4.15,1.99,45
Aubarède,AUBAREDE,65350,65044,43.266667,0.25,1.23,61
Aubas,AUBAS,24290,24014,45.083333,1.2,1.61,3
Aubazat,AUBAZAT,43380,43011,45.133333,3.45,1.19,10
Aube,AUBE,57580,57037,49.033333,6.333333,1.59,54
Aubéguimont,AUBEGUIMONT,76390,76028,49.8,1.666667,2.04,70
Aubenas,AUBENAS,07200,07019,44.616667,4.383333,0.71,90
Aubenas-les-Alpes,AUBENAS LES ALPES,04110,04012,43.933333,5.683333,1.73,83
Aubenasson,AUBENASSON,26340,26015,44.683333,5.15,1.52,91
Aubencheul-au-Bac,AUBENCHEUL AU BAC,59265,59023,50.25,3.166667,0.77,64
Aubencheul-aux-Bois,AUBENCHEUL AUX BOIS,02420,02030,50.033333,3.266667,2,76
Aubenton,AUBENTON,02500,02031,49.833333,4.2,2.93,76
Aubepierre-sur-Aube,AUBEPIERRE SUR AUBE,52210,52022,47.916667,4.916667,1.52,29
Auberchicourt,AUBERCHICOURT,59165,59024,50.333333,3.233333,0.41,64
Aubercourt,AUBERCOURT,80110,80035,49.833333,2.55,1.28,78
Aubergenville,AUBERGENVILLE,78410,78029,48.966667,1.85,1.07,43
Auberive,AUBERIVE,52160,52023,47.783333,5.05,1.41,29
Auberives-en-Royans,AUBERIVES EN ROYANS,38680,38018,45.066667,5.3,1.36,92
Aubérives-sur-Varèze,AUBERIVES SUR VAREZE,38550,38019,45.433333,4.833333,2.38,92
Aubermesnil-Beaumais,AUBERMESNIL BEAUMAIS,76550,76030,49.85,1.116667,1.78,70
Aubers,AUBERS,59249,59025,50.6,2.833333,1.04,64
Aubertans,AUBERTANS,70190,70033,47.45,6.166667,1.47,34
Aubertin,AUBERTIN,64290,64072,43.266667,-0.483333,0.82,7
Auberville,AUBERVILLE,14640,14024,49.316667,-0.033333,1.54,66
Auberville-la-Campagne,AUBERVILLE LA CAMPAGNE,76170,76031,49.533333,0.6,1.12,70
Auberville-la-Manuel,AUBERVILLE LA MANUEL,76450,76032,49.833333,0.583333,1.2,70
Auberville-la-Renault,AUBERVILLE LA RENAULT,76110,76033,49.683333,0.366667,1.81,70
Aubervilliers,AUBERVILLIERS,93300,93001,48.916667,2.383333,1.1,39
Aubeterre,AUBETERRE,10150,10015,48.433333,4.116667,0.91,27
Aubeterre-sur-Dronne,AUBETERRE SUR DRONNE,16390,16020,45.266667,0.166667,2.39,79
Aubeville,AUBEVILLE,16250,16021,45.5,-0.016667,1.13,79
Aubevoye,AUBEVOYE,27940,27022,49.15,1.333333,1.05,69
Aubiac,AUBIAC,33430,33017,44.483333,-0.25,1.66,4
Aubiac,AUBIAC,47310,47016,44.133333,0.583333,1.69,6
Aubiat,AUBIAT,63260,63013,45.9785,3.16927,-1,11
Aubie-et-Espessas,AUBIE ET ESPESSAS,33240,33018,45.016667,-0.4,1.03,4
Aubière,AUBIERE,63170,63014,45.75,3.116667,1,11
Aubiet,AUBIET,32270,32012,43.65,0.8,1.17,59
Aubignan,AUBIGNAN,84810,84004,44.1,5.016667,0.7,88
Aubignas,AUBIGNAS,07400,07020,44.583333,4.616667,0.86,90
Aubigné,AUBIGNE,35250,35007,48.3,-1.633333,1.15,18
Aubigné,AUBIGNE,79110,79018,46.05,-0.133333,1.74,81
Aubigné-Racan,AUBIGNE RACAN,72800,72013,47.683333,0.266667,1.99,74
Aubigney,AUBIGNEY,70140,70034,47.333333,5.533333,2.16,34
Aubignosc,AUBIGNOSC,04200,04013,44.133333,5.966667,0.74,83
Aubigny,AUBIGNY,03460,03009,46.683333,3.166667,2.26,8
Aubigny,AUBIGNY,14700,14025,48.916667,-0.216667,1.58,66
Aubigny,AUBIGNY,79390,79019,46.733333,-0.133333,1.01,81
Aubigny,AUBIGNY,80800,80036,49.9,2.483333,0.77,78
Aubigny,AUBIGNY,85430,85008,46.6,-1.45,1.1,75
Aubigny-au-Bac,AUBIGNY AU BAC,59265,59026,50.266667,3.166667,1.21,64
Aubigny-aux-Kaisnes,AUBIGNY AUX KAISNES,02590,02032,49.783333,3.116667,1.8,76
Aubigny-en-Laonnois,AUBIGNY EN LAONNOIS,02820,02033,49.5,3.8,1.19,76
Aubigny-en-Plaine,AUBIGNY EN PLAINE,21170,21031,47.133333,5.166667,1.7,12
Aubigny-la-Ronce,AUBIGNY LA RONCE,21340,21032,46.983333,4.616667,1.92,12
Aubigny-les-Pothées,AUBIGNY LES POTHEES,08150,08026,49.783333,4.433333,1.41,26
Aubigny-lès-Sombernon,AUBIGNY LES SOMBERNON,21540,21033,47.3,4.65,0.96,12
Aubigny-sur-Nère,AUBIGNY SUR NERE,18700,18015,47.483333,2.433333,2.2,20
Aubilly,AUBILLY,51170,51020,49.216667,3.866667,1.41,28
Aubin,AUBIN,12110,12013,44.533333,2.25,1.28,57
Aubin,AUBIN,64230,64073,43.433333,-0.416667,1.22,7
Aubinges,AUBINGES,18220,18016,47.216667,2.583333,0.91,20
Aubin-Saint-Vaast,AUBIN SAINT VAAST,62140,62046,50.4,1.983333,1.02,65
Auboncourt-Vauzelles,AUBONCOURT VAUZELLES,08270,08027,49.55,4.5,0.79,26
Aubonne,AUBONNE,25520,25029,47.033333,6.333333,1.23,32
Aubord,AUBORD,30620,30020,43.75,4.316667,1.99,45
Auboué,AUBOUE,54580,54028,49.216667,5.983333,1.6,52
Aubous,AUBOUS,64330,64074,43.566667,-0.133333,2,7
Aubrac,AUBRAC,12470,12900,44.616667,2.983333,1.43,57
Aubres,AUBRES,26110,26016,44.383333,5.166667,1.21,91
Aubréville,AUBREVILLE,55120,55014,49.15,5.083333,1.6,53
Aubrives,AUBRIVES,08320,08028,50.1,4.766667,-1,26
Aubrometz,AUBROMETZ,62390,62047,50.3,2.183333,1.18,65
Aubry-en-Exmes,AUBRY EN EXMES,61160,61009,48.8,0.083333,1.26,68
Aubry-le-Panthou,AUBRY LE PANTHOU,61120,61010,48.85,0.233333,1.64,68
Aubure,AUBURE,68150,68014,48.2,7.216667,2.19,2
Aubussargues,AUBUSSARGUES,30190,30021,44.016667,4.333333,1.7,45
Aubusson,AUBUSSON,23200,23008,45.95,2.166667,0.97,50
Aubusson,AUBUSSON,61100,61011,48.783333,-0.55,1.75,68
Aubusson-d'Auvergne,AUBUSSON D AUVERGNE,63120,63015,45.75,3.616667,1.72,11
Aubvillers,AUBVILLERS,80110,80037,49.716667,2.483333,1.63,78
Auby,AUBY,59950,59028,50.416667,3.05,0.49,64
Aucaleuc,AUCALEUC,22100,22003,48.45,-2.133333,1.77,16
Aucamville,AUCAMVILLE,82600,82005,43.8,1.216667,2.06,63
Aucazein,AUCAZEIN,09800,09025,42.933333,0.983333,2.42,56
Aucelon,AUCELON,26340,26017,44.633333,5.35,1.4,91
Aucey-la-Plaine,AUCEY LA PLAINE,50170,50019,48.533333,-1.483333,1.91,67
Auch,AUCH,32000,32013,43.65,0.583333,0.67,59
Auchel,AUCHEL,62260,62048,50.5,2.466667,1.26,65
Auchonvillers,AUCHONVILLERS,80560,80038,50.083333,2.616667,1.57,78
Auchy-au-Bois,AUCHY AU BOIS,62190,62049,50.55,2.366667,2.22,65
Auchy-la-Montagne,AUCHY LA MONTAGNE,60360,60026,49.583333,2.116667,1.14,77
Auchy-lès-Hesdin,AUCHY LES HESDIN,62770,62050,50.4,2.1,0.82,65
Auchy-les-Mines,AUCHY LES MINES,62138,62051,50.516667,2.783333,1.29,65
Auchy-lès-Orchies,AUCHY LES ORCHIES,59310,59029,50.483333,3.2,0.86,64
Aucun,AUCUN,65400,65045,42.966667,-0.166667,2.18,61
Audaux,AUDAUX,64190,64075,43.366667,-0.783333,0.64,7
Audéjos,AUDEJOS,64170,64076,43.433333,-0.616667,1.79,7
Audelange,AUDELANGE,39700,39024,47.133333,5.583333,1.92,33
Audeloncourt,AUDELONCOURT,52240,52025,48.116667,5.516667,1.2,29
Audembert,AUDEMBERT,62250,62052,50.866667,1.7,2.35,65
Audencourt,AUDENCOURT,59540,59030,50.116667,3.433333,1.35,64
Audenge,AUDENGE,33980,33019,44.683333,-1,2.66,4
Auderville,AUDERVILLE,50440,50020,49.71358,-1.93104,-1,67
Audes,AUDES,03190,03010,46.45,2.566667,1.85,8
Audeux,AUDEUX,25170,25030,47.266667,5.883333,1.8,32
Audeville,AUDEVILLE,45300,45012,48.266667,2.233333,2.05,25
Audierne,AUDIERNE,29770,29003,48.016667,-4.533333,1.68,17
Audignicourt,AUDIGNICOURT,02300,02034,49.483333,3.133333,1.74,76
Audignies,AUDIGNIES,59570,59031,50.283333,3.816667,1.45,64
Audignon,AUDIGNON,40500,40017,43.716667,-0.6,0.83,5
Audigny,AUDIGNY,02120,02035,49.85,3.65,1.24,76
Audincourt,AUDINCOURT,25400,25031,47.483333,6.833333,1.75,32
Audinghen,AUDINGHEN,62179,62054,50.85,1.6,2.26,65
Audon,AUDON,40400,40018,43.8,-0.816667,0.79,5
Audouville-la-Hubert,AUDOUVILLE LA HUBERT,50480,50021,49.416667,-1.233333,1.08,67
Audrehem,AUDREHEM,62890,62055,50.783333,1.983333,1.87,65
Audressein,AUDRESSEIN,09800,09026,42.933333,1.016667,2.27,56
Audresselles,AUDRESSELLES,62164,62056,50.816667,1.583333,2.13,65
Audrieu,AUDRIEU,14250,14026,49.2,-0.6,0.75,66
Audrix,AUDRIX,24260,24015,44.883333,0.933333,1.18,3
Audruicq,AUDRUICQ,62370,62057,50.883333,2.083333,2.45,65
Audun-le-Roman,AUDUN LE ROMAN,54560,54029,49.366667,5.883333,2.16,52
Audun-le-Tiche,AUDUN LE TICHE,57390,57038,49.466667,5.95,2.42,54
Auenheim,AUENHEIM,67480,67014,48.816667,8.016667,2.41,1
Auffargis,AUFFARGIS,78610,78030,48.7,1.883333,1.47,43
Aufferville,AUFFERVILLE,77570,77011,48.216667,2.616667,2.04,40
Auflance,AUFLANCE,08370,08029,49.616667,5.283333,2.7,26
Auga,AUGA,64450,64077,43.483333,-0.366667,1.3,7
Augan,AUGAN,56800,56006,47.916667,-2.283333,1.69,19
Auge,AUGE,08380,08030,49.85,4.266667,1.67,26
Auge,AUGE,16170,16022,45.85,-0.1,1.15,79
Auge,AUGE,23170,23009,46.25,2.316667,1.2,50
Augé,AUGE,79400,79020,46.433333,-0.283333,1.52,81
Augea,AUGEA,39190,39025,46.55,5.416667,1.58,33
Augerans,AUGERANS,39380,39026,47.016667,5.583333,1.36,33
Augères,AUGERES,23210,23010,46.083333,1.733333,1.22,50
Auger-Saint-Vincent,AUGER SAINT VINCENT,60800,60027,49.216667,2.8,1.51,77
Augers-en-Brie,AUGERS EN BRIE,77560,77012,48.683333,3.35,2.07,40
Augerville-la-Rivière,AUGERVILLE LA RIVIERE,45330,45013,48.25,2.433333,1.93,25
Augès,AUGES,04310,04014,44.033333,5.9,0.96,83
Augeville,AUGEVILLE,52270,52026,48.366667,5.316667,1.26,29
Augicourt,AUGICOURT,70500,70035,47.783333,5.9,1.14,34
Augignac,AUGIGNAC,24300,24016,45.583333,0.7,2.36,3
Augirein,AUGIREIN,09800,09027,42.933333,0.916667,2.71,56
Augisey,AUGISEY,39270,39027,46.55,5.483333,1.81,33
Augnat,AUGNAT,63340,63017,45.416667,3.2,1.78,11
Augnax,AUGNAX,32120,32014,43.716667,0.783333,1.11,59
Augne,AUGNE,87120,87004,45.783333,1.7,2.29,51
Augny,AUGNY,57176,57039,49.066667,6.116667,1.55,54
Auguaise,AUGUAISE,61270,61012,48.7,0.55,1.17,68
Augy,AUGY,02220,02036,49.333333,3.516667,0.88,76
Augy,AUGY,89290,89023,47.766667,3.616667,0.66,15
Augy-sur-Aubois,AUGY SUR AUBOIS,18600,18017,46.783333,2.85,1.43,20
Aujac,AUJAC,17770,17023,45.85,-0.4,1.05,80
Aujac,AUJAC,30450,30022,44.35,4.016667,2.44,45
Aujan-Mournède,AUJAN MOURNEDE,32300,32015,43.383333,0.516667,1.87,59
Aujargues,AUJARGUES,30250,30023,43.783333,4.116667,1.75,45
Aujeurres,AUJEURRES,52190,52027,47.733333,5.183333,1.63,29
Aujols,AUJOLS,46090,46010,44.416667,1.566667,1.4,60
Aulan,AULAN,26570,26018,44.216667,5.433333,1.85,91
Aulas,AULAS,30120,30024,44,3.583333,2.48,45
Aulhat-Saint-Privat,AULHAT SAINT PRIVAT,63500,63018,45.566667,3.316667,1.06,11
Aullène,AULLENE,20116,20024,41.766667,9.083333,1.83,30
Aulnat,AULNAT,63510,63019,45.8,3.166667,1,11
Aulnay,AULNAY,10240,10017,48.466667,4.4,1.47,27
Aulnay,AULNAY,86330,86013,46.908333,0.091667,-1,82
Aulnay-aux-Planches,AULNAY AUX PLANCHES,51130,51021,48.816667,3.95,1.09,28
Aulnay-l'Aître,AULNAY L AITRE,51240,51022,48.833333,4.566667,1.12,28
Aulnay-la-Rivière,AULNAY LA RIVIERE,45390,45014,48.2,2.383333,1.58,25
Aulnay-sous-Bois,AULNAY SOUS BOIS,93600,93005,48.95,2.516667,1.52,39
Aulnay-sur-Iton,AULNAY SUR ITON,27180,27023,49,1.05,0.88,69
Aulnay-sur-Marne,AULNAY SUR MARNE,51150,51023,49,4.2,0.92,28
Aulnay-sur-Mauldre,AULNAY SUR MAULDRE,78126,78033,48.933333,1.85,0.75,43
Aulnizeux,AULNIZEUX,51130,51024,48.833333,3.933333,1.12,28
Aulnois,AULNOIS,88300,88017,48.25,5.783333,1.46,55
Aulnois-en-Perthois,AULNOIS EN PERTHOIS,55170,55015,48.633333,5.133333,1.53,53
Aulnois-sous-Laon,AULNOIS SOUS LAON,02000,02037,49.616667,3.6,1.15,76
Aulnois-sous-Vertuzey,AULNOIS SOUS VERTUZEY,55200,55016,48.75,5.666667,1.46,53
Aulnois-sur-Seille,AULNOIS SUR SEILLE,57590,57040,48.866667,6.316667,1.48,54
Aulnoy,AULNOY,77120,77013,48.85,3.1,1.1,40
Aulnoye-Aymeries,AULNOYE AYMERIES,59620,59033,50.2,3.833333,1.49,64
Aulnoy-sur-Aube,AULNOY SUR AUBE,52160,52028,47.833333,5.033333,1.19,29
Aulon,AULON,23210,23011,46.083333,1.7,1.36,50
Aulon,AULON,31420,31023,43.183333,0.833333,1.45,58
Aulos,AULOS,09310,09028,42.8,1.683333,1.5,56
Ault,AULT,80460,80039,50.1,1.45,2.24,78
Aulus-les-Bains,AULUS LES BAINS,09140,09029,42.8,1.333333,1.65,56
Aulx-lès-Cromary,AULX LES CROMARY,70190,70036,47.383333,6.116667,1.79,34
Aumagne,AUMAGNE,17770,17025,45.866667,-0.4,1.15,80
Aumale,AUMALE,76390,76035,49.766667,1.75,2.28,70
Aumâtre,AUMATRE,80140,80040,49.916667,1.783333,1.36,78
Aumerval,AUMERVAL,62550,62058,50.516667,2.4,0.86,65
Aumes,AUMES,34530,34017,43.466667,3.466667,1,46
Aumessas,AUMESSAS,30770,30025,43.983333,3.5,2.82,45
Aumetz,AUMETZ,57710,57041,49.416667,5.933333,2.13,54
Aumeville-Lestre,AUMEVILLE LESTRE,50630,50022,49.533333,-1.316667,1.47,67
Aumont,AUMONT,39800,39028,46.9,5.633333,0.9,33
Aumont,AUMONT,80640,80041,49.883333,1.916667,1.01,78
Aumont-Aubrac,AUMONT AUBRAC,48130,48009,44.716667,3.283333,0.97,47
Aumontzey,AUMONTZEY,88640,88018,48.166667,6.783333,1.3,55
Aumur,AUMUR,39410,39029,47.05,5.35,1.99,33
Aunac,AUNAC,16460,16023,45.916667,0.25,1.11,79
Aunat,AUNAT,11140,11019,42.8,2.1,2.18,44
Aunay-en-Bazois,AUNAY EN BAZOIS,58110,58017,47.116667,3.7,0.94,13
Aunay-les-Bois,AUNAY LES BOIS,61500,61013,48.55,0.3,1.74,68
Aunay-sous-Auneau,AUNAY SOUS AUNEAU,28700,28013,48.433333,1.816667,1.89,21
Aunay-sous-Crécy,AUNAY SOUS CRECY,28500,28014,48.666667,1.3,1.33,21
Aunay-sur-Odon,AUNAY SUR ODON,14260,14027,49.016667,-0.633333,0.85,66
Auneau,AUNEAU,28700,28015,48.45,1.766667,1.66,21
Auneuil,AUNEUIL,60390,60029,49.366667,2,1.2,77
Aunou-le-Faucon,AUNOU LE FAUCON,61200,61014,48.733333,0.033333,1.39,68
Aunou-sur-Orne,AUNOU SUR ORNE,61500,61015,48.616667,0.233333,0.93,68
Auppegard,AUPPEGARD,76730,76036,49.833333,1.033333,1.8,70
Aups,AUPS,83630,83007,43.616667,6.233333,1.21,87
Auquainville,AUQUAINVILLE,14140,14028,49.05,0.25,1.77,66
Auquemesnil,AUQUEMESNIL,76630,76037,49.95,1.333333,2.07,70
Auradé,AURADE,32600,32016,43.566667,1.066667,2.08,59
Auradou,AURADOU,47140,47017,44.35,0.816667,1.51,6
Auragne,AURAGNE,31190,31024,43.383333,1.5,1.16,58
Auray,AURAY,56400,56007,47.666667,-2.983333,0.89,19
Aure,AURE,08400,08031,49.266667,4.633333,2.27,26
Aurec-sur-Loire,AUREC SUR LOIRE,43110,43012,45.366667,4.2,1.74,10
Aureil,AUREIL,87220,87005,45.8,1.4,1.21,51
Aureilhan,AUREILHAN,40200,40019,44.216667,-1.2,2.25,5
Aureilhan,AUREILHAN,65800,65047,43.25,0.1,1.48,61
Aureille,AUREILLE,13930,13006,43.7,4.95,1.26,86
Aurel,AUREL,26340,26019,44.7,5.3,0.89,91
Aurel,AUREL,84390,84005,44.133333,5.416667,1.36,88
Aurelle-Verlac,AURELLE VERLAC,12130,12014,44.533333,2.983333,1.78,57
Aurensan,AURENSAN,65390,65048,43.3,0.083333,1.15,61
Aureville,AUREVILLE,31320,31025,43.483333,1.45,1.52,58
Auriac,AURIAC,11330,11020,42.933333,2.5,1.27,44
Auriac,AURIAC,19220,19014,45.2,2.166667,1.24,49
Auriac,AURIAC,64450,64078,43.45,-0.3,1.1,7
Auriac-de-Bourzac,AURIAC DE BOURZAC,24320,24017,45.366667,0.25,1.72,3
Auriac-du-Périgord,AURIAC DU PERIGORD,24290,24018,45.1,1.133333,1.37,3
Auriac-Lagast,AURIAC LAGAST,12120,12015,44.15,2.583333,0.83,57
Auriac-l'Église,AURIAC L EGLISE,15500,15013,45.266667,3.133333,1.78,9
Auriac-sur-Dropt,AURIAC SUR DROPT,47120,47018,44.65,0.233333,1.69,6
Auriac-sur-Vendinelle,AURIAC SUR VENDINELLE,31460,31026,43.516667,1.816667,2,58
Auriat,AURIAT,23400,23012,45.883333,1.633333,1.64,50
Auribail,AURIBAIL,31190,31027,43.35,1.383333,1.22,58
Auribeau,AURIBEAU,04380,04015,44.2,6.166667,1.16,83
Auribeau-sur-Siagne,AURIBEAU SUR SIAGNE,06810,06007,43.6,6.916667,1.82,85
Aurice,AURICE,40500,40020,43.816667,-0.6,1.49,5
Auriébat,AURIEBAT,65700,65049,43.5,0.083333,2.55,61
Aurières,AURIERES,63210,63020,45.683333,2.916667,1.36,11
Aurignac,AURIGNAC,31420,31028,43.216667,0.883333,0.73,58
Aurillac,AURILLAC,15000,15014,44.916667,2.45,0.92,9
Aurimont,AURIMONT,32450,32018,43.583333,0.833333,1.6,59
Aurin,AURIN,31570,31029,43.533333,1.666667,1.56,58
Auriol,AURIOL,13390,13007,43.383333,5.633333,1.56,86
Auriolles,AURIOLLES,07120,07021,44.433333,4.316667,1.52,90
Auriolles,AURIOLLES,33790,33020,44.733333,0.05,1.67,4
Aurions-Idernes,AURIONS IDERNES,64350,64079,43.533333,-0.133333,1.72,7
Auris,AURIS,38142,38020,45.05,6.083333,2.22,92
Auron,AURON,06660,06901,44.233333,6.933333,2.89,85
Aurons,AURONS,13121,13008,43.666667,5.15,0.99,86
Auros,AUROS,33124,33021,44.5,-0.15,1.58,4
Aurouer,AUROUER,03460,03011,46.683333,3.3,2.26,8
Auroux,AUROUX,48600,48010,44.75,3.733333,1.36,47
Ausseing,AUSSEING,31260,31030,43.15,1.016667,1.73,58
Aussevielle,AUSSEVIELLE,64230,64080,43.35,-0.483333,0.85,7
Aussillon,AUSSILLON,81200,81021,43.483333,2.366667,1.82,62
Aussois,AUSSOIS,73500,73023,45.233333,6.75,2.54,95
Ausson,AUSSON,31210,31031,43.083333,0.6,1.56,58
Aussonce,AUSSONCE,08310,08032,49.35,4.316667,1.72,26
Aussonne,AUSSONNE,31840,31032,43.683333,1.316667,1.6,58
Aussos,AUSSOS,32140,32468,43.383333,0.65,1.87,59
Aussurucq,AUSSURUCQ,64130,64081,43.15,-0.933333,1.6,7
Autainville,AUTAINVILLE,41240,41006,47.883333,1.416667,1.3,24
Autechaux,AUTECHAUX,25110,25032,47.383333,6.383333,0.96,32
Autechaux-Roide,AUTECHAUX ROIDE,25150,25033,47.383333,6.816667,1.69,32
Auterive,AUTERIVE,31190,31033,43.35,1.483333,1.02,58
Auterive,AUTERIVE,82500,82006,43.858333,0.966667,-1,63
Auterrive,AUTERRIVE,64270,64082,43.466667,-1,1.17,7
Autet,AUTET,70180,70037,47.55,5.7,1.42,34
Auteuil,AUTEUIL,60390,60030,49.35,2.083333,1.7,77
Auteuil,AUTEUIL,78770,78034,48.833333,1.816667,1.65,43
Autevielle-Saint-Martin-Bideren,AUTEVIELLE SAINT MARTIN BIDEREN,64390,64083,43.383333,-0.966667,1.03,7
Authe,AUTHE,08240,08033,49.45,4.883333,1.07,26
Autheuil,AUTHEUIL,28220,28017,48,1.283333,2.29,21
Autheuil,AUTHEUIL,61190,61016,48.566667,0.666667,1.48,68
Autheuil-en-Valois,AUTHEUIL EN VALOIS,60890,60031,49.166667,3.066667,1.88,77
Autheux,AUTHEUX,80600,80042,50.133333,2.233333,1.44,78
Authevernes,AUTHEVERNES,27420,27026,49.216667,1.633333,2.03,69
Authézat,AUTHEZAT,63730,63021,45.633333,3.2,0.55,11
Authie,AUTHIE,14280,14030,49.2,-0.433333,1.07,66
Authie,AUTHIE,80560,80043,50.116667,2.5,1.32,78
Authieule,AUTHIEULE,80600,80044,50.133333,2.366667,1.44,78
Authieux-Ratiéville,AUTHIEUX RATIEVILLE,76690,76038,49.6,1.15,0.57,70
Authiou,AUTHIOU,58700,58018,47.266667,3.416667,1.08,13
Authoison,AUTHOISON,70190,70038,47.483333,6.15,1.45,34
Authon,AUTHON,04200,04016,44.233333,6.133333,1.85,83
Authon,AUTHON,41310,41007,47.65,0.9,1.64,24
Authon-du-Perche,AUTHON DU PERCHE,28330,28018,48.2,0.916667,2.1,21
Authon-la-Plaine,AUTHON LA PLAINE,91410,91035,48.45,1.95,2.53,37
Authou,AUTHOU,27290,27028,49.233333,0.7,1.04,69
Authouillet,AUTHOUILLET,27490,27029,49.1,1.283333,1.46,69
Authuille,AUTHUILLE,80300,80045,50.033333,2.666667,0.96,78
Authume,AUTHUME,39100,39030,47.133333,5.5,1.92,33
Authumes,AUTHUMES,71270,71013,46.883333,5.3,2.2,14
Autichamp,AUTICHAMP,26400,26021,44.683333,4.95,1.22,91
Autignac,AUTIGNAC,34480,34018,43.5,3.166667,0.92,46
Autigny,AUTIGNY,76740,76040,49.8,0.866667,0.94,70
Autigny-la-Tour,AUTIGNY LA TOUR,88300,88019,48.4,5.766667,1.54,55
Autigny-le-Grand,AUTIGNY LE GRAND,52300,52029,48.466667,5.133333,1.6,29
Autigny-le-Petit,AUTIGNY LE PETIT,52300,52030,48.483333,5.133333,1.67,29
Autingues,AUTINGUES,62610,62059,50.833333,1.983333,2.16,65
Autoire,AUTOIRE,46400,46011,44.85,1.833333,1.66,60
Autoreille,AUTOREILLE,70700,70039,47.366667,5.816667,1.91,34
Autouillet,AUTOUILLET,78770,78036,48.85,1.8,0.67,43
Autrac,AUTRAC,43450,43014,45.333333,3.133333,2.42,10
Autrans,AUTRANS,38880,38021,45.166667,5.55,0.82,92
Autrèche,AUTRECHE,37110,37009,47.533333,1,1.63,23
Autrêches,AUTRECHES,60350,60032,49.45,3.116667,2.06,77
Autrecourt-et-Pourron,AUTRECOURT ET POURRON,08210,08034,49.616667,5.033333,1.62,26
Autrecourt-sur-Aire,AUTRECOURT SUR AIRE,55120,55017,49.033333,5.133333,1.34,53
Autremencourt,AUTREMENCOURT,02250,02039,49.7,3.8,1.19,76
Autrepierre,AUTREPIERRE,54450,54030,48.616667,6.8,2.29,52
Autreppes,AUTREPPES,02580,02040,49.9,3.85,1.45,76
Autretot,AUTRETOT,76190,76041,49.65,0.733333,0.8,70
Autreville,AUTREVILLE,02300,02041,49.583333,3.233333,1.29,76
Autreville,AUTREVILLE,88300,88020,48.483333,5.85,2.3,55
Autréville-Saint-Lambert,AUTREVILLE SAINT LAMBERT,55700,55018,49.566667,5.116667,2.3,53
Autreville-sur-la-Renne,AUTREVILLE SUR LA RENNE,52120,52031,48.116667,4.966667,1.29,29
Autreville-sur-Moselle,AUTREVILLE SUR MOSELLE,54380,54031,48.816667,6.116667,1.23,52
Autrey,AUTREY,88700,88021,48.3,6.683333,1.33,55
Autrey-lès-Cerre,AUTREY LES CERRE,70110,70040,47.616667,6.35,1.95,34
Autrey-lès-Gray,AUTREY LES GRAY,70100,70041,47.483333,5.5,2.14,34
Autrey-le-Vay,AUTREY LE VAY,70110,70042,47.533333,6.4,1.08,34
Autricourt,AUTRICOURT,21570,21034,47.99658,4.61977,-1,12
Autruche,AUTRUCHE,08240,08035,49.45,4.9,1.07,26
Autruy-sur-Juine,AUTRUY SUR JUINE,45480,45015,48.266667,2.1,2.05,25
Autry,AUTRY,08250,08036,49.266667,4.833333,2.27,26
Autry-Issards,AUTRY ISSARDS,03210,03012,46.55,3.133333,1.34,8
Autun,AUTUN,71400,71014,46.95,4.3,1.81,14
Auty,AUTY,82220,82007,44.2,1.466667,1.98,63
Auvare,AUVARE,06260,06008,43.983333,6.916667,1.08,85
Auve,AUVE,51800,51027,49.033333,4.7,1.53,28
Auvergny,AUVERGNY,27250,27030,48.883333,0.733333,1.66,69
Auvernaux,AUVERNAUX,91830,91037,48.533333,2.483333,1.87,37
Auvers,AUVERS,43300,43015,45,3.416667,1.32,10
Auvers,AUVERS,50500,50023,49.3,-1.316667,0.84,67
Auverse,AUVERSE,49490,49013,47.516667,0.05,1.93,72
Auvers-le-Hamon,AUVERS LE HAMON,72300,72016,47.9,-0.35,2.52,74
Auvers-Saint-Georges,AUVERS SAINT GEORGES,91580,91038,48.483333,2.233333,1.09,37
Auvers-sous-Montfaucon,AUVERS SOUS MONTFAUCON,72540,72017,48.016667,-0.066667,1.29,74
Auvers-sur-Oise,AUVERS SUR OISE,95430,95039,49.066667,2.166667,1,42
Auvet-et-la-Chapelotte,AUVET ET LA CHAPELOTTE,70100,70043,47.516667,5.516667,2.08,34
Auvillar,AUVILLAR,82340,82008,44.066667,0.9,1.3,63
Auvillars,AUVILLARS,14340,14033,49.2,0.066667,1.23,66
Auvillars-sur-Saône,AUVILLARS SUR SAONE,21250,21035,47.05,5.1,1.59,12
Auvillers-les-Forges,AUVILLERS LES FORGES,08260,08037,49.866667,4.35,1.65,26
Auvilliers,AUVILLIERS,76270,76042,49.766667,1.583333,1.79,70
Auvilliers-en-Gâtinais,AUVILLIERS EN GATINAIS,45270,45017,47.966667,2.5,0.59,25
Aux Marais,AUX MARAIS,60000,60703,49.433333,2.05,1.06,77
Auxais,AUXAIS,50500,50024,49.216667,-1.283333,1.04,67
Auxange,AUXANGE,39700,39031,47.166667,5.65,2.08,33
Auxant,AUXANT,21360,21036,47.116667,4.616667,1.26,12
Aux-Aussat,AUX AUSSAT,32170,32020,43.433333,0.266667,1.54,59
Auxelles-Bas,AUXELLES BAS,90200,90005,47.733333,6.783333,2.3,35
Auxelles-Haut,AUXELLES HAUT,90200,90006,47.75,6.766667,2.56,35
Auxerre,AUXERRE,89000,89024,47.8,3.566667,0.27,15
Auxey-Duresses,AUXEY DURESSES,21190,21037,46.983333,4.75,1.92,12
Auxi-le-Château,AUXI LE CHATEAU,62390,62060,50.233333,2.116667,1.33,65
Auxillac,AUXILLAC,48500,48011,44.466667,3.233333,1.1,47
Auxon,AUXON,10130,10018,48.1,3.916667,1.42,27
Auxon,AUXON,70000,70044,47.683333,6.166667,1.02,34
Auxon-Dessous,AUXON DESSOUS,25870,25034,47.3,5.95,1.58,32
Auxon-Dessus,AUXON DESSUS,25870,25035,47.3,5.966667,1.49,32
Auxonne,AUXONNE,21130,21038,47.2,5.383333,2.07,12
Auxy,AUXY,45340,45018,48.116667,2.466667,1.42,25
Auxy,AUXY,71400,71015,46.95,4.4,1.81,14
Auzainvilliers,AUZAINVILLIERS,88140,88022,48.233333,5.85,1.28,55
Auzances,AUZANCES,23700,23013,46.016667,2.5,1.96,50
Auzas,AUZAS,31360,31034,43.166667,0.883333,0.73,58
Auzat,AUZAT,09220,09030,42.766667,1.483333,1.8,56
Auzat-sur-Allier,AUZAT SUR ALLIER,63570,63022,45.45,3.316667,1.59,11
Auzay,AUZAY,85200,85009,46.433333,-0.866667,1.38,75
Auzebosc,AUZEBOSC,76190,76043,49.6,0.733333,0.72,70
Auzécourt,AUZECOURT,55800,55019,48.883333,4.983333,2.13,53
Auzelles,AUZELLES,63590,63023,45.616667,3.533333,1.39,11
Auzers,AUZERS,15240,15015,45.266667,2.466667,1.37,9
Auzet,AUZET,04140,04017,44.3,6.3,1.38,83
Auzéville-en-Argonne,AUZEVILLE EN ARGONNE,55120,55020,49.1,5.1,1.52,53
Auzeville-Tolosane,AUZEVILLE TOLOSANE,31320,31035,43.533333,1.483333,1.23,58
Auzielle,AUZIELLE,31650,31036,43.55,1.566667,1.27,58
Auzits,AUZITS,12390,12016,44.5,2.333333,0.99,57
Auzon,AUZON,43390,43016,45.383333,3.383333,1.87,10
Auzouer-en-Touraine,AUZOUER EN TOURAINE,37110,37010,47.55,0.916667,1.73,23
Auzouville-Auberbosc,AUZOUVILLE AUBERBOSC,76640,76044,49.633333,0.566667,1.22,70
Auzouville-l'Esneval,AUZOUVILLE L ESNEVAL,76760,76045,49.633333,0.883333,1.07,70
Auzouville-sur-Ry,AUZOUVILLE SUR RY,76116,76046,49.433333,1.316667,1.82,70
Auzouville-sur-Saâne,AUZOUVILLE SUR SAANE,76730,76047,49.75,0.933333,1.03,70
Availles-Limouzine,AVAILLES LIMOUZINE,86460,86015,46.116667,0.65,2.28,82
Availles-sur-Chizé,AVAILLES SUR CHIZE,79170,79021,46.1,-0.35,1.55,81
Availles-sur-Seiche,AVAILLES SUR SEICHE,35130,35008,47.966667,-1.2,1.7,18
Availles-Thouarsais,AVAILLES THOUARSAIS,79600,79022,46.85,-0.15,1.22,81
Avajan,AVAJAN,65240,65050,42.833333,0.4,2.12,61
Avallon,AVALLON,89200,89025,47.483333,3.9,1.84,15
Avançon,AVANCON,05230,05011,44.533333,6.183333,1.3,84
Avançon,AVANCON,08300,08038,49.483333,4.25,1.75,26
Avant-lès-Marcilly,AVANT LES MARCILLY,10400,10020,48.416667,3.566667,2.21,27
Avant-lès-Ramerupt,AVANT LES RAMERUPT,10240,10021,48.45,4.283333,1.25,27
Avanton,AVANTON,86170,86016,46.666667,0.316667,2.03,82
Avapessa,AVAPESSA,20225,20025,42.566667,8.9,1.28,31
Avaray,AVARAY,41500,41008,47.716667,1.566667,1.36,24
Avaux,AVAUX,08190,08039,49.45,4.083333,2.46,26
Aveize,AVEIZE,69610,69014,45.683333,4.483333,1.3,94
Aveizieux,AVEIZIEUX,42330,42010,45.566667,4.383333,1.45,93
Avelanges,AVELANGES,21120,21039,47.583333,5.033333,1.03,12
Avelesges,AVELESGES,80270,80046,49.916667,1.916667,1.01,78
Avelin,AVELIN,59710,59034,50.533333,3.083333,1.53,64
Aveluy,AVELUY,80300,80047,50.016667,2.666667,0.96,78
Avenas,AVENAS,69430,69015,46.2,4.616667,2.12,94
Avenay,AVENAY,14210,14034,49.1,-0.466667,0.89,66
Avenay-Val-d'Or,AVENAY VAL D OR,51160,51028,49.066667,4.05,1.02,28
Avène,AVENE,34260,34019,43.75,3.1,1.25,46
Aveney,AVENEY,25720,25037,47.2,5.966667,1.49,32
Avenheim,AVENHEIM,67370,67015,48.666667,7.55,0.9,1
Avensac,AVENSAC,32120,32021,43.833333,0.9,1.55,59
Avensan,AVENSAN,33480,33022,45.033333,-0.75,1.63,4
Aventignan,AVENTIGNAN,65660,65051,43.066667,0.55,1.96,61
Averan,AVERAN,65380,65052,43.133333,-,1.22,61
Averdoingt,AVERDOINGT,62127,62061,50.35,2.45,0.65,65
Averdon,AVERDON,41330,41009,47.683333,1.3,0.95,24
Avermes,AVERMES,03000,03013,46.583333,3.3,1.57,8
Avernes,AVERNES,95450,95040,49.083333,1.866667,1.34,42
Avernes-Saint-Gourgon,AVERNES SAINT GOURGON,61470,61018,48.933333,0.333333,2.28,68
Avernes-sous-Exmes,AVERNES SOUS EXMES,61310,61019,48.8,0.216667,1.26,68
Avéron-Bergelle,AVERON BERGELLE,32290,32022,43.75,0.066667,1.32,59
Averton,AVERTON,53700,53013,48.333333,-0.216667,1.99,73
Avesnelles,AVESNELLES,59440,59035,50.116667,3.95,1.79,64
Avesnes,AVESNES,62650,62062,50.55,1.966667,1.04,65
Avesnes-Chaussoy,AVESNES CHAUSSOY,80140,80048,49.9,1.866667,1.74,78
Avesnes-en-Bray,AVESNES EN BRAY,76220,76048,49.466667,1.666667,2.04,70
Avesnes-en-Val,AVESNES EN VAL,76630,76049,49.916667,1.4,1.98,70
Avesnes-le-Comte,AVESNES LE COMTE,62810,62063,50.283333,2.533333,1.04,65
Avesnes-lès-Aubert,AVESNES LES AUBERT,59129,59037,50.2,3.383333,0.99,64
Avesnes-lès-Bapaume,AVESNES LES BAPAUME,62450,62064,50.1,2.833333,2.11,65
Avesnes-le-Sec,AVESNES LE SEC,59296,59038,50.25,3.383333,0.77,64
Avesnes-sur-Helpe,AVESNES SUR HELPE,59440,59036,50.116667,3.933333,1.75,64
Avessac,AVESSAC,44460,44007,47.65,-1.983333,1.83,71
Avessé,AVESSE,72350,72019,47.95,-0.25,2.09,74
Aveux,AVEUX,65370,65053,43,0.566667,2.06,61
Avezan,AVEZAN,32380,32023,43.866667,0.8,1.36,59
Avèze,AVEZE,30120,30026,43.983333,3.6,2.41,45
Avèze,AVEZE,63690,63024,45.6,2.6,2.26,11
Avezé,AVEZE,72400,72020,48.233333,0.683333,1.96,74
Aviernoz,AVIERNOZ,74570,74022,45.966667,6.216667,0.93,96
Avignon,AVIGNON,84000,84007,43.95,4.816667,1.73,88
Avignonet,AVIGNONET,38650,38023,44.95,5.683333,1.88,92
Avillers,AVILLERS,88500,88023,48.316667,6.216667,1.73,55
